cd_uf,nm_uf,nm_mesorregiao,nm_microrregiao,nm_municipio_1mai_ca,nm_municipio_uf,cd_mun_5d,cd_mun_6d,cd_mun_7d,cd_microrregiao,cd_mesorregiao,cd_mun_rfb,nm_vice_presidencia,nu_altitude,nu_latitude,nu_longitude,nm_uf_sa,nm_municipio_1mai_sa,nm_municipio_mai_sa,nm_uf_mai_sa,nm_municipio_uf_mai_sa,cd_uf_dim,nm_uf_sigla
11,Rondônia,Leste Rondoniense,Cacoal,Alta Floresta D'Oeste,"Alta Floresta D'Oeste, Rondônia, Brasil",15,110001,1100015,6,2,33,null,null,-11.9355403,-61.9998239,Rondonia,Alta Floresta D'Oeste,ALTA FLORESTA D'OESTE,RONDONIA,"ALTA FLORESTA D'OESTE, RONDONIA, BRASIL",11,RO
11,Rondônia,Leste Rondoniense,Cacoal,Alto Alegre dos Parecis,"Alto Alegre dos Parecis, Rondônia, Brasil",379,110037,1100379,6,2,2,null,null,-12.13177722,-61.85307717,Rondonia,Alto Alegre dos Parecis,ALTO ALEGRE DOS PARECIS,RONDONIA,"ALTO ALEGRE DOS PARECIS, RONDONIA, BRASIL",11,RO
11,Rondônia,Leste Rondoniense,Ariquemes,Alto Paraíso,"Alto Paraíso, Rondônia, Brasil",403,110040,1100403,3,2,675,null,null,-9.716666738,-63.31762943,Rondonia,Alto Paraiso,ALTO PARAISO,RONDONIA,"ALTO PARAISO, RONDONIA, BRASIL",11,RO
11,Rondônia,Leste Rondoniense,Alvorada D'Oeste,Alvorada D'Oeste,"Alvorada D'Oeste, Rondônia, Brasil",346,110034,1100346,5,2,35,null,null,-11.34413002,-62.27727487,Rondonia,Alvorada D'Oeste,ALVORADA D'OESTE,RONDONIA,"ALVORADA D'OESTE, RONDONIA, BRASIL",11,RO
11,Rondônia,Leste Rondoniense,Ariquemes,Ariquemes,"Ariquemes, Rondônia, Brasil",23,110002,1100023,3,2,7,null,null,-9.908462867,-63.03326928,Rondonia,Ariquemes,ARIQUEMES,RONDONIA,"ARIQUEMES, RONDONIA, BRASIL",11,RO
11,Rondônia,Madeira-Guaporé,Porto Velho,Buritis,"Buritis, Rondônia, Brasil",452,110045,1100452,1,1,4,null,null,-10.20980541,-63.82967879,Rondonia,Buritis,BURITIS,RONDONIA,"BURITIS, RONDONIA, BRASIL",11,RO
11,Rondônia,Leste Rondoniense,Colorado do Oeste,Cabixi,"Cabixi, Rondônia, Brasil",31,110003,1100031,8,2,37,null,null,-13.49976346,-60.54431358,Rondonia,Cabixi,CABIXI,RONDONIA,"CABIXI, RONDONIA, BRASIL",11,RO
11,Rondônia,Leste Rondoniense,Ariquemes,Cacaulândia,"Cacaulândia, Rondônia, Brasil",601,110060,1100601,3,2,677,null,null,-10.33887284,-62.90318993,Rondonia,Cacaulandia,CACAULANDIA,RONDONIA,"CACAULANDIA, RONDONIA, BRASIL",11,RO
11,Rondônia,Leste Rondoniense,Cacoal,Cacoal,"Cacoal, Rondônia, Brasil",49,110004,1100049,6,2,9,null,null,-11.43386503,-61.44294421,Rondonia,Cacoal,CACOAL,RONDONIA,"CACOAL, RONDONIA, BRASIL",11,RO
11,Rondônia,Madeira-Guaporé,Porto Velho,Campo Novo de Rondônia,"Campo Novo de Rondônia, Rondônia, Brasil",700,110070,1100700,1,1,679,null,null,-10.56841647,-63.62499143,Rondonia,Campo Novo de Rondonia,CAMPO NOVO DE RONDONIA,RONDONIA,"CAMPO NOVO DE RONDONIA, RONDONIA, BRASIL",11,RO
11,Rondônia,Madeira-Guaporé,Porto Velho,Candeias do Jamari,"Candeias do Jamari, Rondônia, Brasil",809,110080,1100809,1,1,681,null,null,-8.785020703,-63.70002007,Rondonia,Candeias do Jamari,CANDEIAS DO JAMARI,RONDONIA,"CANDEIAS DO JAMARI, RONDONIA, BRASIL",11,RO
11,Rondônia,Leste Rondoniense,Cacoal,Castanheiras,"Castanheiras, Rondônia, Brasil",908,110090,1100908,6,2,691,null,null,-11.42684223,-61.9491612,Rondonia,Castanheiras,CASTANHEIRAS,RONDONIA,"CASTANHEIRAS, RONDONIA, BRASIL",11,RO
11,Rondônia,Leste Rondoniense,Colorado do Oeste,Cerejeiras,"Cerejeiras, Rondônia, Brasil",56,110005,1100056,8,2,27,null,null,-13.19503303,-60.81842616,Rondonia,Cerejeiras,CEREJEIRAS,RONDONIA,"CEREJEIRAS, RONDONIA, BRASIL",11,RO
11,Rondônia,Leste Rondoniense,Vilhena,Chupinguaia,"Chupinguaia, Rondônia, Brasil",924,110092,1100924,7,2,6,null,null,-12.55684076,-60.90184775,Rondonia,Chupinguaia,CHUPINGUAIA,RONDONIA,"CHUPINGUAIA, RONDONIA, BRASIL",11,RO
11,Rondônia,Leste Rondoniense,Colorado do Oeste,Colorado do Oeste,"Colorado do Oeste, Rondônia, Brasil",64,110006,1100064,8,2,23,null,null,-13.13056384,-60.55506746,Rondonia,Colorado do Oeste,COLORADO DO OESTE,RONDONIA,"COLORADO DO OESTE, RONDONIA, BRASIL",11,RO
11,Rondônia,Leste Rondoniense,Colorado do Oeste,Corumbiara,"Corumbiara, Rondônia, Brasil",72,110007,1100072,8,2,981,null,null,-12.99752024,-60.94870117,Rondonia,Corumbiara,CORUMBIARA,RONDONIA,"CORUMBIARA, RONDONIA, BRASIL",11,RO
11,Rondônia,Madeira-Guaporé,Guajará-Mirim,Costa Marques,"Costa Marques, Rondônia, Brasil",80,110008,1100080,2,1,21,null,null,-12.43601388,-64.23165394,Rondonia,Costa Marques,COSTA MARQUES,RONDONIA,"COSTA MARQUES, RONDONIA, BRASIL",11,RO
11,Rondônia,Madeira-Guaporé,Porto Velho,Cujubim,"Cujubim, Rondônia, Brasil",940,110094,1100940,1,1,8,null,null,-9.378193399,-62.58717453,Rondonia,Cujubim,CUJUBIM,RONDONIA,"CUJUBIM, RONDONIA, BRASIL",11,RO
11,Rondônia,Leste Rondoniense,Cacoal,Espigão D'Oeste,"Espigão D'Oeste, Rondônia, Brasil",98,110009,1100098,6,2,25,null,null,-11.52855463,-61.02017311,Rondonia,Espigao D'Oeste,ESPIGAO D'OESTE,RONDONIA,"ESPIGAO D'OESTE, RONDONIA, BRASIL",11,RO
11,Rondônia,Leste Rondoniense,Ji-Paraná,Governador Jorge Teixeira,"Governador Jorge Teixeira, Rondônia, Brasil",1005,110100,1101005,4,2,693,null,null,-10.61207177,-62.74045764,Rondonia,Governador Jorge Teixeira,GOVERNADOR JORGE TEIXEIRA,RONDONIA,"GOVERNADOR JORGE TEIXEIRA, RONDONIA, BRASIL",11,RO
11,Rondônia,Madeira-Guaporé,Guajará-Mirim,Guajará-Mirim,"Guajará-Mirim, Rondônia, Brasil",106,110010,1100106,2,1,1,null,null,-10.77388374,-65.32395182,Rondonia,Guajara-Mirim,GUAJARA-MIRIM,RONDONIA,"GUAJARA-MIRIM, RONDONIA, BRASIL",11,RO
11,Rondônia,Madeira-Guaporé,Porto Velho,Itapuã do Oeste,"Itapuã do Oeste, Rondônia, Brasil",1104,110110,1101104,1,1,683,null,null,-9.191871675,-63.18233702,Rondonia,Itapua do Oeste,ITAPUA DO OESTE,RONDONIA,"ITAPUA DO OESTE, RONDONIA, BRASIL",11,RO
11,Rondônia,Leste Rondoniense,Ji-Paraná,Jaru,"Jaru, Rondônia, Brasil",114,110011,1100114,4,2,15,null,null,-10.43594877,-62.47623071,Rondonia,Jaru,JARU,RONDONIA,"JARU, RONDONIA, BRASIL",11,RO
11,Rondônia,Leste Rondoniense,Ji-Paraná,Ji-Paraná,"Ji-Paraná, Rondônia, Brasil",122,110012,1100122,4,2,5,null,null,-10.88205132,-61.94509458,Rondonia,Ji-Parana,JI-PARANA,RONDONIA,"JI-PARANA, RONDONIA, BRASIL",11,RO
11,Rondônia,Leste Rondoniense,Ariquemes,Machadinho D'Oeste,"Machadinho D'Oeste, Rondônia, Brasil",130,110013,1100130,3,2,39,null,null,-9.42556248,-61.99959257,Rondonia,Machadinho D'Oeste,MACHADINHO D'OESTE,RONDONIA,"MACHADINHO D'OESTE, RONDONIA, BRASIL",11,RO
11,Rondônia,Leste Rondoniense,Cacoal,Ministro Andreazza,"Ministro Andreazza, Rondônia, Brasil",1203,110120,1101203,6,2,695,null,null,-11.19623798,-61.51892193,Rondonia,Ministro Andreazza,MINISTRO ANDREAZZA,RONDONIA,"MINISTRO ANDREAZZA, RONDONIA, BRASIL",11,RO
11,Rondônia,Leste Rondoniense,Ji-Paraná,Mirante da Serra,"Mirante da Serra, Rondônia, Brasil",1302,110130,1101302,4,2,697,null,null,-11.04560929,-62.6694271,Rondonia,Mirante da Serra,MIRANTE DA SERRA,RONDONIA,"MIRANTE DA SERRA, RONDONIA, BRASIL",11,RO
11,Rondônia,Leste Rondoniense,Ariquemes,Monte Negro,"Monte Negro, Rondônia, Brasil",1401,110140,1101401,3,2,685,null,null,-10.26309776,-63.29555917,Rondonia,Monte Negro,MONTE NEGRO,RONDONIA,"MONTE NEGRO, RONDONIA, BRASIL",11,RO
11,Rondônia,Leste Rondoniense,Alvorada D'Oeste,Nova Brasilândia D'Oeste,"Nova Brasilândia D'Oeste, Rondônia, Brasil",148,110014,1100148,5,2,41,null,null,-11.72132541,-62.30823016,Rondonia,Nova Brasilandia D'Oeste,NOVA BRASILANDIA D'OESTE,RONDONIA,"NOVA BRASILANDIA D'OESTE, RONDONIA, BRASIL",11,RO
11,Rondônia,Madeira-Guaporé,Porto Velho,Nova Mamoré,"Nova Mamoré, Rondônia, Brasil",338,110033,1100338,1,1,47,null,null,-10.41177129,-65.32914902,Rondonia,Nova Mamore,NOVA MAMORE,RONDONIA,"NOVA MAMORE, RONDONIA, BRASIL",11,RO
11,Rondônia,Leste Rondoniense,Ji-Paraná,Nova União,"Nova União, Rondônia, Brasil",1435,110143,1101435,4,2,10,null,null,-10.91553204,-62.5550894,Rondonia,Nova Uniao,NOVA UNIAO,RONDONIA,"NOVA UNIAO, RONDONIA, BRASIL",11,RO
11,Rondônia,Leste Rondoniense,Cacoal,Novo Horizonte do Oeste,"Novo Horizonte do Oeste, Rondônia, Brasil",502,110050,1100502,6,2,689,null,null,-11.70974292,-61.99438766,Rondonia,Novo Horizonte do Oeste,NOVO HORIZONTE DO OESTE,RONDONIA,"NOVO HORIZONTE DO OESTE, RONDONIA, BRASIL",11,RO
11,Rondônia,Leste Rondoniense,Ji-Paraná,Ouro Preto do Oeste,"Ouro Preto do Oeste, Rondônia, Brasil",155,110015,1100155,4,2,17,null,null,-10.7235739,-62.26105519,Rondonia,Ouro Preto do Oeste,OURO PRETO DO OESTE,RONDONIA,"OURO PRETO DO OESTE, RONDONIA, BRASIL",11,RO
11,Rondônia,Leste Rondoniense,Vilhena,Parecis,"Parecis, Rondônia, Brasil",1450,110145,1101450,7,2,12,null,null,-12.17982705,-61.59799797,Rondonia,Parecis,PARECIS,RONDONIA,"PARECIS, RONDONIA, BRASIL",11,RO
11,Rondônia,Leste Rondoniense,Vilhena,Pimenta Bueno,"Pimenta Bueno, Rondônia, Brasil",189,110018,1100189,7,2,11,null,null,-11.67753699,-61.18366567,Rondonia,Pimenta Bueno,PIMENTA BUENO,RONDONIA,"PIMENTA BUENO, RONDONIA, BRASIL",11,RO
11,Rondônia,Leste Rondoniense,Colorado do Oeste,Pimenteiras do Oeste,"Pimenteiras do Oeste, Rondônia, Brasil",1468,110146,1101468,8,2,14,null,null,-13.476562,-61.044379,Rondonia,Pimenteiras do Oeste,PIMENTEIRAS DO OESTE,RONDONIA,"PIMENTEIRAS DO OESTE, RONDONIA, BRASIL",11,RO
11,Rondônia,Madeira-Guaporé,Porto Velho,Porto Velho,"Porto Velho, Rondônia, Brasil",205,110020,1100205,1,1,3,null,null,-8.76889179,-63.83144565,Rondonia,Porto Velho,PORTO VELHO,RONDONIA,"PORTO VELHO, RONDONIA, BRASIL",11,RO
11,Rondônia,Leste Rondoniense,Ji-Paraná,Presidente Médici,"Presidente Médici, Rondônia, Brasil",254,110025,1100254,4,2,19,null,null,-11.17320502,-61.90943868,Rondonia,Presidente Medici,PRESIDENTE MEDICI,RONDONIA,"PRESIDENTE MEDICI, RONDONIA, BRASIL",11,RO
11,Rondônia,Leste Rondoniense,Vilhena,Primavera de Rondônia,"Primavera de Rondônia, Rondônia, Brasil",1476,110147,1101476,7,2,16,null,null,-11.82570695,-61.31654624,Rondonia,Primavera de Rondonia,PRIMAVERA DE RONDONIA,RONDONIA,"PRIMAVERA DE RONDONIA, RONDONIA, BRASIL",11,RO
11,Rondônia,Leste Rondoniense,Ariquemes,Rio Crespo,"Rio Crespo, Rondônia, Brasil",262,110026,1100262,3,2,687,null,null,-9.70553671,-62.90001037,Rondonia,Rio Crespo,RIO CRESPO,RONDONIA,"RIO CRESPO, RONDONIA, BRASIL",11,RO
11,Rondônia,Leste Rondoniense,Cacoal,Rolim de Moura,"Rolim de Moura, Rondônia, Brasil",288,110028,1100288,6,2,29,null,null,-11.72225891,-61.78578094,Rondonia,Rolim de Moura,ROLIM DE MOURA,RONDONIA,"ROLIM DE MOURA, RONDONIA, BRASIL",11,RO
11,Rondônia,Leste Rondoniense,Cacoal,Santa Luzia D'Oeste,"Santa Luzia D'Oeste, Rondônia, Brasil",296,110029,1100296,6,2,43,null,null,-11.90842333,-61.77330546,Rondonia,Santa Luzia D'Oeste,SANTA LUZIA D'OESTE,RONDONIA,"SANTA LUZIA D'OESTE, RONDONIA, BRASIL",11,RO
11,Rondônia,Leste Rondoniense,Vilhena,São Felipe D'Oeste,"São Felipe D'Oeste, Rondônia, Brasil",1484,110148,1101484,7,2,18,null,null,-11.91438935,-61.51250811,Rondonia,Sao Felipe D'Oeste,SAO FELIPE D'OESTE,RONDONIA,"SAO FELIPE D'OESTE, RONDONIA, BRASIL",11,RO
11,Rondônia,Madeira-Guaporé,Guajará-Mirim,São Francisco do Guaporé,"São Francisco do Guaporé, Rondônia, Brasil",1492,110149,1101492,2,1,20,null,null,-12.06379841,-63.57086471,Rondonia,Sao Francisco do Guapore,SAO FRANCISCO DO GUAPORE,RONDONIA,"SAO FRANCISCO DO GUAPORE, RONDONIA, BRASIL",11,RO
11,Rondônia,Leste Rondoniense,Alvorada D'Oeste,São Miguel do Guaporé,"São Miguel do Guaporé, Rondônia, Brasil",320,110032,1100320,5,2,45,null,null,-11.69948974,-62.72006348,Rondonia,Sao Miguel do Guapore,SAO MIGUEL DO GUAPORE,RONDONIA,"SAO MIGUEL DO GUAPORE, RONDONIA, BRASIL",11,RO
11,Rondônia,Leste Rondoniense,Alvorada D'Oeste,Seringueiras,"Seringueiras, Rondônia, Brasil",1500,110150,1101500,5,2,699,null,null,-11.76711664,-63.038761,Rondonia,Seringueiras,SERINGUEIRAS,RONDONIA,"SERINGUEIRAS, RONDONIA, BRASIL",11,RO
11,Rondônia,Leste Rondoniense,Ji-Paraná,Teixeirópolis,"Teixeirópolis, Rondônia, Brasil",1559,110155,1101559,4,2,22,null,null,-10.93216929,-62.25592225,Rondonia,Teixeiropolis,TEIXEIROPOLIS,RONDONIA,"TEIXEIROPOLIS, RONDONIA, BRASIL",11,RO
11,Rondônia,Leste Rondoniense,Ji-Paraná,Theobroma,"Theobroma, Rondônia, Brasil",1609,110160,1101609,4,2,975,null,null,-10.24873055,-62.34514553,Rondonia,Theobroma,THEOBROMA,RONDONIA,"THEOBROMA, RONDONIA, BRASIL",11,RO
11,Rondônia,Leste Rondoniense,Ji-Paraná,Urupá,"Urupá, Rondônia, Brasil",1708,110170,1101708,4,2,977,null,null,-11.12854528,-62.37063245,Rondonia,Urupa,URUPA,RONDONIA,"URUPA, RONDONIA, BRASIL",11,RO
11,Rondônia,Leste Rondoniense,Ariquemes,Vale do Anari,"Vale do Anari, Rondônia, Brasil",1757,110175,1101757,3,2,24,null,null,-9.851392708,-62.17682344,Rondonia,Vale do Anari,VALE DO ANARI,RONDONIA,"VALE DO ANARI, RONDONIA, BRASIL",11,RO
11,Rondônia,Leste Rondoniense,Ji-Paraná,Vale do Paraíso,"Vale do Paraíso, Rondônia, Brasil",1807,110180,1101807,4,2,979,null,null,-10.43105268,-62.13439036,Rondonia,Vale do Paraiso,VALE DO PARAISO,RONDONIA,"VALE DO PARAISO, RONDONIA, BRASIL",11,RO
11,Rondônia,Leste Rondoniense,Vilhena,Vilhena,"Vilhena, Rondônia, Brasil",304,110030,1100304,7,2,13,null,null,-12.74137347,-60.13858387,Rondonia,Vilhena,VILHENA,RONDONIA,"VILHENA, RONDONIA, BRASIL",11,RO
12,Acre,Vale do Acre,Rio Branco,Acrelândia,"Acrelândia, Acre, Brasil",13,120001,1200013,4,2,643,null,null,-10.07379389,-67.05231658,Acre,Acrelandia,ACRELANDIA,ACRE,"ACRELANDIA, ACRE, BRASIL",12,AC
12,Acre,Vale do Acre,Brasiléia,Assis Brasil,"Assis Brasil, Acre, Brasil",54,120005,1200054,5,2,157,null,null,-10.94286568,-69.56345917,Acre,Assis Brasil,ASSIS BRASIL,ACRE,"ASSIS BRASIL, ACRE, BRASIL",12,AC
12,Acre,Vale do Acre,Brasiléia,Brasiléia,"Brasiléia, Acre, Brasil",104,120010,1200104,5,2,105,null,null,-11.01641102,-68.74794343,Acre,Brasileia,BRASILEIA,ACRE,"BRASILEIA, ACRE, BRASIL",12,AC
12,Acre,Vale do Acre,Rio Branco,Bujari,"Bujari, Acre, Brasil",138,120013,1200138,4,2,645,null,null,-9.820019627,-67.95185928,Acre,Bujari,BUJARI,ACRE,"BUJARI, ACRE, BRASIL",12,AC
12,Acre,Vale do Acre,Rio Branco,Capixaba,"Capixaba, Acre, Brasil",179,120017,1200179,4,2,647,null,null,-10.56976771,-67.67350797,Acre,Capixaba,CAPIXABA,ACRE,"CAPIXABA, ACRE, BRASIL",12,AC
12,Acre,Vale do Juruá,Cruzeiro do Sul,Cruzeiro do Sul,"Cruzeiro do Sul, Acre, Brasil",203,120020,1200203,1,1,107,null,null,-7.630690005,-72.67253132,Acre,Cruzeiro do Sul,CRUZEIRO DO SUL,ACRE,"CRUZEIRO DO SUL, ACRE, BRASIL",12,AC
12,Acre,Vale do Acre,Brasiléia,Epitaciolândia,"Epitaciolândia, Acre, Brasil",252,120025,1200252,5,2,651,null,null,-11.02823983,-68.74486807,Acre,Epitaciolandia,EPITACIOLANDIA,ACRE,"EPITACIOLANDIA, ACRE, BRASIL",12,AC
12,Acre,Vale do Juruá,Tarauacá,Feijó,"Feijó, Acre, Brasil",302,120030,1200302,2,1,113,null,null,-8.16024753,-70.35398361,Acre,Feijo,FEIJO,ACRE,"FEIJO, ACRE, BRASIL",12,AC
12,Acre,Vale do Juruá,Tarauacá,Jordão,"Jordão, Acre, Brasil",328,120032,1200328,2,1,653,null,null,-9.19335786,-71.95087512,Acre,Jordao,JORDAO,ACRE,"JORDAO, ACRE, BRASIL",12,AC
12,Acre,Vale do Juruá,Cruzeiro do Sul,Mâncio Lima,"Mâncio Lima, Acre, Brasil",336,120033,1200336,1,1,109,null,null,-7.593222594,-72.91650103,Acre,Mancio Lima,MANCIO LIMA,ACRE,"MANCIO LIMA, ACRE, BRASIL",12,AC
12,Acre,Vale do Acre,Sena Madureira,Manoel Urbano,"Manoel Urbano, Acre, Brasil",344,120034,1200344,3,2,155,null,null,-8.836317737,-69.25994458,Acre,Manoel Urbano,MANOEL URBANO,ACRE,"MANOEL URBANO, ACRE, BRASIL",12,AC
12,Acre,Vale do Juruá,Cruzeiro do Sul,Marechal Thaumaturgo,"Marechal Thaumaturgo, Acre, Brasil",351,120035,1200351,1,1,655,null,null,-8.953591123,-72.79026591,Acre,Marechal Thaumaturgo,MARECHAL THAUMATURGO,ACRE,"MARECHAL THAUMATURGO, ACRE, BRASIL",12,AC
12,Acre,Vale do Acre,Rio Branco,Plácido de Castro,"Plácido de Castro, Acre, Brasil",385,120038,1200385,4,2,151,null,null,-10.33513328,-67.18826009,Acre,Placido de Castro,PLACIDO DE CASTRO,ACRE,"PLACIDO DE CASTRO, ACRE, BRASIL",12,AC
12,Acre,Vale do Acre,Rio Branco,Porto Acre,"Porto Acre, Acre, Brasil",807,120080,1200807,4,2,649,null,null,-9.600858231,-67.54059008,Acre,Porto Acre,PORTO ACRE,ACRE,"PORTO ACRE, ACRE, BRASIL",12,AC
12,Acre,Vale do Juruá,Cruzeiro do Sul,Porto Walter,"Porto Walter, Acre, Brasil",393,120039,1200393,1,1,657,null,null,-8.266666363,-72.74233396,Acre,Porto Walter,PORTO WALTER,ACRE,"PORTO WALTER, ACRE, BRASIL",12,AC
12,Acre,Vale do Acre,Rio Branco,Rio Branco,"Rio Branco, Acre, Brasil",401,120040,1200401,4,2,139,null,null,-9.978298753,-67.8105287,Acre,Rio Branco,RIO BRANCO,ACRE,"RIO BRANCO, ACRE, BRASIL",12,AC
12,Acre,Vale do Juruá,Cruzeiro do Sul,Rodrigues Alves,"Rodrigues Alves, Acre, Brasil",427,120042,1200427,1,1,659,null,null,-7.733602034,-72.64785491,Acre,Rodrigues Alves,RODRIGUES ALVES,ACRE,"RODRIGUES ALVES, ACRE, BRASIL",12,AC
12,Acre,Vale do Acre,Sena Madureira,Santa Rosa do Purus,"Santa Rosa do Purus, Acre, Brasil",435,120043,1200435,3,2,661,null,null,-9.443406537,-70.48649689,Acre,Santa Rosa do Purus,SANTA ROSA DO PURUS,ACRE,"SANTA ROSA DO PURUS, ACRE, BRASIL",12,AC
12,Acre,Vale do Acre,Sena Madureira,Sena Madureira,"Sena Madureira, Acre, Brasil",500,120050,1200500,3,2,145,null,null,-9.065339505,-68.65568406,Acre,Sena Madureira,SENA MADUREIRA,ACRE,"SENA MADUREIRA, ACRE, BRASIL",12,AC
12,Acre,Vale do Acre,Rio Branco,Senador Guiomard,"Senador Guiomard, Acre, Brasil",450,120045,1200450,4,2,153,null,null,-10.14817359,-67.74317236,Acre,Senador Guiomard,SENADOR GUIOMARD,ACRE,"SENADOR GUIOMARD, ACRE, BRASIL",12,AC
12,Acre,Vale do Juruá,Tarauacá,Tarauacá,"Tarauacá, Acre, Brasil",609,120060,1200609,2,1,147,null,null,-8.155668592,-70.75550106,Acre,Tarauaca,TARAUACA,ACRE,"TARAUACA, ACRE, BRASIL",12,AC
12,Acre,Vale do Acre,Brasiléia,Xapuri,"Xapuri, Acre, Brasil",708,120070,1200708,5,2,149,null,null,-10.65207194,-68.50629481,Acre,Xapuri,XAPURI,ACRE,"XAPURI, ACRE, BRASIL",12,AC
13,Amazonas,Centro Amazonense,Tefé,Alvarães,"Alvarães, Amazonas, Brasil",29,130002,1300029,5,3,289,null,null,-3.216583769,-64.81353468,Amazonas,Alvaraes,ALVARAES,AMAZONAS,"ALVARAES, AMAZONAS, BRASIL",13,AM
13,Amazonas,Sudoeste Amazonense,Alto Solimões,Amaturá,"Amaturá, Amazonas, Brasil",60,130006,1300060,3,2,291,null,null,-3.366805188,-68.20961464,Amazonas,Amatura,AMATURA,AMAZONAS,"AMATURA, AMAZONAS, BRASIL",13,AM
13,Amazonas,Centro Amazonense,Coari,Anamã,"Anamã, Amazonas, Brasil",86,130008,1300086,6,3,293,null,null,-3.576370427,-61.40590348,Amazonas,Anama,ANAMA,AMAZONAS,"ANAMA, AMAZONAS, BRASIL",13,AM
13,Amazonas,Centro Amazonense,Coari,Anori,"Anori, Amazonas, Brasil",102,130010,1300102,6,3,203,null,null,-3.745385586,-61.65895538,Amazonas,Anori,ANORI,AMAZONAS,"ANORI, AMAZONAS, BRASIL",13,AM
13,Amazonas,Sul Amazonense,Madeira,Apuí,"Apuí, Amazonas, Brasil",144,130014,1300144,13,4,969,null,null,-7.197870152,-59.8856661,Amazonas,Apui,APUI,AMAZONAS,"APUI, AMAZONAS, BRASIL",13,AM
13,Amazonas,Sudoeste Amazonense,Alto Solimões,Atalaia do Norte,"Atalaia do Norte, Amazonas, Brasil",201,130020,1300201,3,2,205,null,null,-4.36615749,-70.18798928,Amazonas,Atalaia do Norte,ATALAIA DO NORTE,AMAZONAS,"ATALAIA DO NORTE, AMAZONAS, BRASIL",13,AM
13,Amazonas,Centro Amazonense,Manaus,Autazes,"Autazes, Amazonas, Brasil",300,130030,1300300,7,3,207,null,null,-3.578663642,-59.13356709,Amazonas,Autazes,AUTAZES,AMAZONAS,"AUTAZES, AMAZONAS, BRASIL",13,AM
13,Amazonas,Norte Amazonense,Rio Negro,Barcelos,"Barcelos, Amazonas, Brasil",409,130040,1300409,1,1,209,null,null,-0.972801053,-62.92566966,Amazonas,Barcelos,BARCELOS,AMAZONAS,"BARCELOS, AMAZONAS, BRASIL",13,AM
13,Amazonas,Centro Amazonense,Parintins,Barreirinha,"Barreirinha, Amazonas, Brasil",508,130050,1300508,10,3,211,null,null,-2.798149837,-57.06775049,Amazonas,Barreirinha,BARREIRINHA,AMAZONAS,"BARREIRINHA, AMAZONAS, BRASIL",13,AM
13,Amazonas,Sudoeste Amazonense,Alto Solimões,Benjamin Constant,"Benjamin Constant, Amazonas, Brasil",607,130060,1300607,3,2,213,null,null,-4.374989019,-70.02734843,Amazonas,Benjamin Constant,BENJAMIN CONSTANT,AMAZONAS,"BENJAMIN CONSTANT, AMAZONAS, BRASIL",13,AM
13,Amazonas,Centro Amazonense,Coari,Beruri,"Beruri, Amazonas, Brasil",631,130063,1300631,6,3,295,null,null,-3.89451341,-61.37157089,Amazonas,Beruri,BERURI,AMAZONAS,"BERURI, AMAZONAS, BRASIL",13,AM
13,Amazonas,Centro Amazonense,Parintins,Boa Vista do Ramos,"Boa Vista do Ramos, Amazonas, Brasil",680,130068,1300680,10,3,297,null,null,-2.971726532,-57.58770735,Amazonas,Boa Vista do Ramos,BOA VISTA DO RAMOS,AMAZONAS,"BOA VISTA DO RAMOS, AMAZONAS, BRASIL",13,AM
13,Amazonas,Sul Amazonense,Boca do Acre,Boca do Acre,"Boca do Acre, Amazonas, Brasil",706,130070,1300706,11,4,215,null,null,-8.751243196,-67.39957776,Amazonas,Boca do Acre,BOCA DO ACRE,AMAZONAS,"BOCA DO ACRE, AMAZONAS, BRASIL",13,AM
13,Amazonas,Sul Amazonense,Madeira,Borba,"Borba, Amazonas, Brasil",805,130080,1300805,13,4,217,null,null,-4.390619891,-59.59455902,Amazonas,Borba,BORBA,AMAZONAS,"BORBA, AMAZONAS, BRASIL",13,AM
13,Amazonas,Centro Amazonense,Coari,Caapiranga,"Caapiranga, Amazonas, Brasil",839,130083,1300839,6,3,299,null,null,-3.330093392,-61.21133413,Amazonas,Caapiranga,CAAPIRANGA,AMAZONAS,"CAAPIRANGA, AMAZONAS, BRASIL",13,AM
13,Amazonas,Sul Amazonense,Purus,Canutama,"Canutama, Amazonas, Brasil",904,130090,1300904,12,4,219,null,null,-6.529106076,-64.39423082,Amazonas,Canutama,CANUTAMA,AMAZONAS,"CANUTAMA, AMAZONAS, BRASIL",13,AM
13,Amazonas,Sudoeste Amazonense,Juruá,Carauari,"Carauari, Amazonas, Brasil",1001,130100,1301001,4,2,221,null,null,-4.881665904,-66.89663528,Amazonas,Carauari,CARAUARI,AMAZONAS,"CARAUARI, AMAZONAS, BRASIL",13,AM
13,Amazonas,Centro Amazonense,Manaus,Careiro,"Careiro, Amazonas, Brasil",1100,130110,1301100,7,3,223,null,null,-3.82244727,-60.36380984,Amazonas,Careiro,CAREIRO,AMAZONAS,"CAREIRO, AMAZONAS, BRASIL",13,AM
13,Amazonas,Centro Amazonense,Manaus,Careiro da Várzea,"Careiro da Várzea, Amazonas, Brasil",1159,130115,1301159,7,3,965,null,null,-3.197396595,-59.82631406,Amazonas,Careiro da Varzea,CAREIRO DA VARZEA,AMAZONAS,"CAREIRO DA VARZEA, AMAZONAS, BRASIL",13,AM
13,Amazonas,Centro Amazonense,Coari,Coari,"Coari, Amazonas, Brasil",1209,130120,1301209,6,3,225,null,null,-4.084219159,-63.14218398,Amazonas,Coari,COARI,AMAZONAS,"COARI, AMAZONAS, BRASIL",13,AM
13,Amazonas,Centro Amazonense,Coari,Codajás,"Codajás, Amazonas, Brasil",1308,130130,1301308,6,3,227,null,null,-3.843045933,-62.06342966,Amazonas,Codajas,CODAJAS,AMAZONAS,"CODAJAS, AMAZONAS, BRASIL",13,AM
13,Amazonas,Sudoeste Amazonense,Juruá,Eirunepé,"Eirunepé, Amazonas, Brasil",1407,130140,1301407,4,2,229,null,null,-6.667352567,-69.86629026,Amazonas,Eirunepe,EIRUNEPE,AMAZONAS,"EIRUNEPE, AMAZONAS, BRASIL",13,AM
13,Amazonas,Sudoeste Amazonense,Juruá,Envira,"Envira, Amazonas, Brasil",1506,130150,1301506,4,2,231,null,null,-7.439817544,-70.03041254,Amazonas,Envira,ENVIRA,AMAZONAS,"ENVIRA, AMAZONAS, BRASIL",13,AM
13,Amazonas,Sudoeste Amazonense,Alto Solimões,Fonte Boa,"Fonte Boa, Amazonas, Brasil",1605,130160,1301605,3,2,233,null,null,-2.512270685,-66.09650299,Amazonas,Fonte Boa,FONTE BOA,AMAZONAS,"FONTE BOA, AMAZONAS, BRASIL",13,AM
13,Amazonas,Sudoeste Amazonense,Juruá,Guajará,"Guajará, Amazonas, Brasil",1654,130165,1301654,4,2,967,null,null,-7.547774415,-72.58243054,Amazonas,Guajara,GUAJARA,AMAZONAS,"GUAJARA, AMAZONAS, BRASIL",13,AM
13,Amazonas,Sul Amazonense,Madeira,Humaitá,"Humaitá, Amazonas, Brasil",1704,130170,1301704,13,4,235,null,null,-7.512224951,-63.02669802,Amazonas,Humaita,HUMAITA,AMAZONAS,"HUMAITA, AMAZONAS, BRASIL",13,AM
13,Amazonas,Sudoeste Amazonense,Juruá,Ipixuna,"Ipixuna, Amazonas, Brasil",1803,130180,1301803,4,2,239,null,null,-7.050980114,-71.69441806,Amazonas,Ipixuna,IPIXUNA,AMAZONAS,"IPIXUNA, AMAZONAS, BRASIL",13,AM
13,Amazonas,Centro Amazonense,Manaus,Iranduba,"Iranduba, Amazonas, Brasil",1852,130185,1301852,7,3,9835,null,null,-3.281053878,-60.19338817,Amazonas,Iranduba,IRANDUBA,AMAZONAS,"IRANDUBA, AMAZONAS, BRASIL",13,AM
13,Amazonas,Centro Amazonense,Itacoatiara,Itacoatiara,"Itacoatiara, Amazonas, Brasil",1902,130190,1301902,9,3,241,null,null,-3.140378804,-58.44017544,Amazonas,Itacoatiara,ITACOATIARA,AMAZONAS,"ITACOATIARA, AMAZONAS, BRASIL",13,AM
13,Amazonas,Sudoeste Amazonense,Juruá,Itamarati,"Itamarati, Amazonas, Brasil",1951,130195,1301951,4,2,9837,null,null,-6.437799349,-68.24791744,Amazonas,Itamarati,ITAMARATI,AMAZONAS,"ITAMARATI, AMAZONAS, BRASIL",13,AM
13,Amazonas,Centro Amazonense,Itacoatiara,Itapiranga,"Itapiranga, Amazonas, Brasil",2009,130200,1302009,9,3,243,null,null,-2.741842752,-58.03454588,Amazonas,Itapiranga,ITAPIRANGA,AMAZONAS,"ITAPIRANGA, AMAZONAS, BRASIL",13,AM
13,Amazonas,Norte Amazonense,Japurá,Japurá,"Japurá, Amazonas, Brasil",2108,130210,1302108,2,1,245,null,null,-1.880844859,-66.99690349,Amazonas,Japura,JAPURA,AMAZONAS,"JAPURA, AMAZONAS, BRASIL",13,AM
13,Amazonas,Sudoeste Amazonense,Juruá,Juruá,"Juruá, Amazonas, Brasil",2207,130220,1302207,4,2,247,null,null,-3.474889599,-66.06304193,Amazonas,Jurua,JURUA,AMAZONAS,"JURUA, AMAZONAS, BRASIL",13,AM
13,Amazonas,Sudoeste Amazonense,Alto Solimões,Jutaí,"Jutaí, Amazonas, Brasil",2306,130230,1302306,3,2,249,null,null,-2.744646447,-66.77132755,Amazonas,Jutai,JUTAI,AMAZONAS,"JUTAI, AMAZONAS, BRASIL",13,AM
13,Amazonas,Sul Amazonense,Purus,Lábrea,"Lábrea, Amazonas, Brasil",2405,130240,1302405,12,4,251,null,null,-7.261946553,-64.79477303,Amazonas,Labrea,LABREA,AMAZONAS,"LABREA, AMAZONAS, BRASIL",13,AM
13,Amazonas,Centro Amazonense,Manaus,Manacapuru,"Manacapuru, Amazonas, Brasil",2504,130250,1302504,7,3,253,null,null,-3.298278035,-60.62058945,Amazonas,Manacapuru,MANACAPURU,AMAZONAS,"MANACAPURU, AMAZONAS, BRASIL",13,AM
13,Amazonas,Centro Amazonense,Manaus,Manaquiri,"Manaquiri, Amazonas, Brasil",2553,130255,1302553,7,3,9839,null,null,-3.429079669,-60.45888131,Amazonas,Manaquiri,MANAQUIRI,AMAZONAS,"MANAQUIRI, AMAZONAS, BRASIL",13,AM
13,Amazonas,Centro Amazonense,Manaus,Manaus,"Manaus, Amazonas, Brasil",2603,130260,1302603,7,3,255,null,null,-3.134691491,-60.02333518,Amazonas,Manaus,MANAUS,AMAZONAS,"MANAUS, AMAZONAS, BRASIL",13,AM
13,Amazonas,Sul Amazonense,Madeira,Manicoré,"Manicoré, Amazonas, Brasil",2702,130270,1302702,13,4,257,null,null,-5.813205261,-61.29924841,Amazonas,Manicore,MANICORE,AMAZONAS,"MANICORE, AMAZONAS, BRASIL",13,AM
13,Amazonas,Norte Amazonense,Japurá,Maraã,"Maraã, Amazonas, Brasil",2801,130280,1302801,2,1,259,null,null,-1.866436877,-65.5742837,Amazonas,Maraa,MARAA,AMAZONAS,"MARAA, AMAZONAS, BRASIL",13,AM
13,Amazonas,Centro Amazonense,Parintins,Maués,"Maués, Amazonas, Brasil",2900,130290,1302900,10,3,261,null,null,-3.386427926,-57.71503439,Amazonas,Maues,MAUES,AMAZONAS,"MAUES, AMAZONAS, BRASIL",13,AM
13,Amazonas,Centro Amazonense,Parintins,Nhamundá,"Nhamundá, Amazonas, Brasil",3007,130300,1303007,10,3,263,null,null,-2.188983767,-56.71676991,Amazonas,Nhamunda,NHAMUNDA,AMAZONAS,"NHAMUNDA, AMAZONAS, BRASIL",13,AM
13,Amazonas,Centro Amazonense,Itacoatiara,Nova Olinda do Norte,"Nova Olinda do Norte, Amazonas, Brasil",3106,130310,1303106,9,3,265,null,null,-3.887592832,-59.09307403,Amazonas,Nova Olinda do Norte,NOVA OLINDA DO NORTE,AMAZONAS,"NOVA OLINDA DO NORTE, AMAZONAS, BRASIL",13,AM
13,Amazonas,Norte Amazonense,Rio Negro,Novo Airão,"Novo Airão, Amazonas, Brasil",3205,130320,1303205,1,1,201,null,null,-2.623432459,-60.94881071,Amazonas,Novo Airao,NOVO AIRAO,AMAZONAS,"NOVO AIRAO, AMAZONAS, BRASIL",13,AM
13,Amazonas,Sul Amazonense,Madeira,Novo Aripuanã,"Novo Aripuanã, Amazonas, Brasil",3304,130330,1303304,13,4,267,null,null,-5.122669314,-60.37704567,Amazonas,Novo Aripuana,NOVO ARIPUANA,AMAZONAS,"NOVO ARIPUANA, AMAZONAS, BRASIL",13,AM
13,Amazonas,Centro Amazonense,Parintins,Parintins,"Parintins, Amazonas, Brasil",3403,130340,1303403,10,3,269,null,null,-2.627052586,-56.73629215,Amazonas,Parintins,PARINTINS,AMAZONAS,"PARINTINS, AMAZONAS, BRASIL",13,AM
13,Amazonas,Sul Amazonense,Boca do Acre,Pauini,"Pauini, Amazonas, Brasil",3502,130350,1303502,11,4,271,null,null,-7.714043644,-67.00209749,Amazonas,Pauini,PAUINI,AMAZONAS,"PAUINI, AMAZONAS, BRASIL",13,AM
13,Amazonas,Centro Amazonense,Rio Preto da Eva,Presidente Figueiredo,"Presidente Figueiredo, Amazonas, Brasil",3536,130353,1303536,8,3,9841,null,null,-2.058429085,-60.02564683,Amazonas,Presidente Figueiredo,PRESIDENTE FIGUEIREDO,AMAZONAS,"PRESIDENTE FIGUEIREDO, AMAZONAS, BRASIL",13,AM
13,Amazonas,Centro Amazonense,Rio Preto da Eva,Rio Preto da Eva,"Rio Preto da Eva, Amazonas, Brasil",3569,130356,1303569,8,3,9843,null,null,-2.693301542,-59.70473809,Amazonas,Rio Preto da Eva,RIO PRETO DA EVA,AMAZONAS,"RIO PRETO DA EVA, AMAZONAS, BRASIL",13,AM
13,Amazonas,Norte Amazonense,Rio Negro,Santa Isabel do Rio Negro,"Santa Isabel do Rio Negro, Amazonas, Brasil",3601,130360,1303601,1,1,237,null,null,-0.416694832,-65.02002264,Amazonas,Santa Isabel do Rio Negro,SANTA ISABEL DO RIO NEGRO,AMAZONAS,"SANTA ISABEL DO RIO NEGRO, AMAZONAS, BRASIL",13,AM
13,Amazonas,Sudoeste Amazonense,Alto Solimões,Santo Antônio do Içá,"Santo Antônio do Içá, Amazonas, Brasil",3700,130370,1303700,3,2,273,null,null,-3.107486309,-67.94648514,Amazonas,Santo Antonio do Ica,SANTO ANTONIO DO ICA,AMAZONAS,"SANTO ANTONIO DO ICA, AMAZONAS, BRASIL",13,AM
13,Amazonas,Norte Amazonense,Rio Negro,São Gabriel da Cachoeira,"São Gabriel da Cachoeira, Amazonas, Brasil",3809,130380,1303809,1,1,283,null,null,-0.136462788,-67.0836429,Amazonas,Sao Gabriel da Cachoeira,SAO GABRIEL DA CACHOEIRA,AMAZONAS,"SAO GABRIEL DA CACHOEIRA, AMAZONAS, BRASIL",13,AM
13,Amazonas,Sudoeste Amazonense,Alto Solimões,São Paulo de Olivença,"São Paulo de Olivença, Amazonas, Brasil",3908,130390,1303908,3,2,275,null,null,-3.466509623,-68.94485349,Amazonas,Sao Paulo de Olivenca,SAO PAULO DE OLIVENCA,AMAZONAS,"SAO PAULO DE OLIVENCA, AMAZONAS, BRASIL",13,AM
13,Amazonas,Centro Amazonense,Parintins,São Sebastião do Uatumã,"São Sebastião do Uatumã, Amazonas, Brasil",3957,130395,1303957,10,3,9845,null,null,-2.57015258,-57.87034636,Amazonas,Sao Sebastiao do Uatuma,SAO SEBASTIAO DO UATUMA,AMAZONAS,"SAO SEBASTIAO DO UATUMA, AMAZONAS, BRASIL",13,AM
13,Amazonas,Centro Amazonense,Itacoatiara,Silves,"Silves, Amazonas, Brasil",4005,130400,1304005,9,3,277,null,null,-2.83642743,-58.21480086,Amazonas,Silves,SILVES,AMAZONAS,"SILVES, AMAZONAS, BRASIL",13,AM
13,Amazonas,Sudoeste Amazonense,Alto Solimões,Tabatinga,"Tabatinga, Amazonas, Brasil",4062,130406,1304062,3,2,9847,null,null,-4.231883676,-69.94624438,Amazonas,Tabatinga,TABATINGA,AMAZONAS,"TABATINGA, AMAZONAS, BRASIL",13,AM
13,Amazonas,Sul Amazonense,Purus,Tapauá,"Tapauá, Amazonas, Brasil",4104,130410,1304104,12,4,279,null,null,-5.624223518,-63.18709487,Amazonas,Tapaua,TAPAUA,AMAZONAS,"TAPAUA, AMAZONAS, BRASIL",13,AM
13,Amazonas,Centro Amazonense,Tefé,Tefé,"Tefé, Amazonas, Brasil",4203,130420,1304203,5,3,281,null,null,-3.348372494,-64.70841966,Amazonas,Tefe,TEFE,AMAZONAS,"TEFE, AMAZONAS, BRASIL",13,AM
13,Amazonas,Sudoeste Amazonense,Alto Solimões,Tonantins,"Tonantins, Amazonas, Brasil",4237,130423,1304237,3,2,9851,null,null,-2.86109125,-67.77648228,Amazonas,Tonantins,TONANTINS,AMAZONAS,"TONANTINS, AMAZONAS, BRASIL",13,AM
13,Amazonas,Centro Amazonense,Tefé,Uarini,"Uarini, Amazonas, Brasil",4260,130426,1304260,5,3,9849,null,null,-2.983609243,-65.15534564,Amazonas,Uarini,UARINI,AMAZONAS,"UARINI, AMAZONAS, BRASIL",13,AM
13,Amazonas,Centro Amazonense,Parintins,Urucará,"Urucará, Amazonas, Brasil",4302,130430,1304302,10,3,285,null,null,-2.536611672,-57.75982817,Amazonas,Urucara,URUCARA,AMAZONAS,"URUCARA, AMAZONAS, BRASIL",13,AM
13,Amazonas,Centro Amazonense,Itacoatiara,Urucurituba,"Urucurituba, Amazonas, Brasil",4401,130440,1304401,9,3,287,null,null,-3.134633116,-58.15964104,Amazonas,Urucurituba,URUCURITUBA,AMAZONAS,"URUCURITUBA, AMAZONAS, BRASIL",13,AM
14,Roraima,Norte de Roraima,Boa Vista,Alto Alegre,"Alto Alegre, Roraima, Brasil",50,140005,1400050,1,1,305,null,null,2.993822948,-61.31402239,Roraima,Alto Alegre,ALTO ALEGRE,RORAIMA,"ALTO ALEGRE, RORAIMA, BRASIL",14,RR
14,Roraima,Norte de Roraima,Boa Vista,Amajari,"Amajari, Roraima, Brasil",27,140002,1400027,1,1,26,null,null,3.652118445,-61.42059017,Roraima,Amajari,AMAJARI,RORAIMA,"AMAJARI, RORAIMA, BRASIL",14,RR
14,Roraima,Norte de Roraima,Boa Vista,Boa Vista,"Boa Vista, Roraima, Brasil",100,140010,1400100,1,1,301,null,null,2.816681919,-60.67053267,Roraima,Boa Vista,BOA VISTA,RORAIMA,"BOA VISTA, RORAIMA, BRASIL",14,RR
14,Roraima,Norte de Roraima,Nordeste de Roraima,Bonfim,"Bonfim, Roraima, Brasil",159,140015,1400159,2,1,307,null,null,3.350288619,-59.87800663,Roraima,Bonfim,BONFIM,RORAIMA,"BONFIM, RORAIMA, BRASIL",14,RR
14,Roraima,Norte de Roraima,Nordeste de Roraima,Cantá,"Cantá, Roraima, Brasil",175,140017,1400175,2,1,28,null,null,2.607666398,-60.60206285,Roraima,Canta,CANTA,RORAIMA,"CANTA, RORAIMA, BRASIL",14,RR
14,Roraima,Sul de Roraima,Caracaraí,Caracaraí,"Caracaraí, Roraima, Brasil",209,140020,1400209,3,2,303,null,null,1.803871247,-61.14917687,Roraima,Caracarai,CARACARAI,RORAIMA,"CARACARAI, RORAIMA, BRASIL",14,RR
14,Roraima,Sul de Roraima,Sudeste de Roraima,Caroebe,"Caroebe, Roraima, Brasil",233,140023,1400233,4,2,30,null,null,0.872674507,-59.69481007,Roraima,Caroebe,CAROEBE,RORAIMA,"CAROEBE, RORAIMA, BRASIL",14,RR
14,Roraima,Sul de Roraima,Caracaraí,Iracema,"Iracema, Roraima, Brasil",282,140028,1400282,3,2,32,null,null,2.168214765,-61.05225859,Roraima,Iracema,IRACEMA,RORAIMA,"IRACEMA, RORAIMA, BRASIL",14,RR
14,Roraima,Sul de Roraima,Caracaraí,Mucajaí,"Mucajaí, Roraima, Brasil",308,140030,1400308,3,2,309,null,null,2.479772235,-60.91151853,Roraima,Mucajai,MUCAJAI,RORAIMA,"MUCAJAI, RORAIMA, BRASIL",14,RR
14,Roraima,Norte de Roraima,Nordeste de Roraima,Normandia,"Normandia, Roraima, Brasil",407,140040,1400407,2,1,311,null,null,3.882978285,-59.63520628,Roraima,Normandia,NORMANDIA,RORAIMA,"NORMANDIA, RORAIMA, BRASIL",14,RR
14,Roraima,Norte de Roraima,Boa Vista,Pacaraima,"Pacaraima, Roraima, Brasil",456,140045,1400456,1,1,34,null,null,4.47525934,-61.14730635,Roraima,Pacaraima,PACARAIMA,RORAIMA,"PACARAIMA, RORAIMA, BRASIL",14,RR
14,Roraima,Sul de Roraima,Sudeste de Roraima,Rorainópolis,"Rorainópolis, Roraima, Brasil",472,140047,1400472,4,2,36,null,null,0.937195394,-60.42506049,Roraima,Rorainopolis,RORAINOPOLIS,RORAIMA,"RORAINOPOLIS, RORAIMA, BRASIL",14,RR
14,Roraima,Sul de Roraima,Sudeste de Roraima,São João da Baliza,"São João da Baliza, Roraima, Brasil",506,140050,1400506,4,2,313,null,null,0.947157427,-59.90604435,Roraima,Sao Joao da Baliza,SAO JOAO DA BALIZA,RORAIMA,"SAO JOAO DA BALIZA, RORAIMA, BRASIL",14,RR
14,Roraima,Sul de Roraima,Sudeste de Roraima,São Luiz,"São Luiz, Roraima, Brasil",605,140060,1400605,4,2,315,null,null,1.018111627,-60.02826677,Roraima,Sao Luiz,SAO LUIZ,RORAIMA,"SAO LUIZ, RORAIMA, BRASIL",14,RR
14,Roraima,Norte de Roraima,Nordeste de Roraima,Uiramutã,"Uiramutã, Roraima, Brasil",704,140070,1400704,2,1,38,null,null,4.585440388,-60.19571615,Roraima,Uiramuta,UIRAMUTA,RORAIMA,"UIRAMUTA, RORAIMA, BRASIL",14,RR
15,Pará,Nordeste Paraense,Cametá,Abaetetuba,"Abaetetuba, Pará, Brasil",107,150010,1500107,11,4,401,null,null,-1.723469863,-48.88440382,Para,Abaetetuba,ABAETETUBA,PARA,"ABAETETUBA, PARA, BRASIL",15,PA
15,Pará,Sudeste Paraense,Paragominas,Abel Figueiredo,"Abel Figueiredo, Pará, Brasil",131,150013,1500131,17,6,375,null,null,-4.951390896,-48.39676213,Para,Abel Figueiredo,ABEL FIGUEIREDO,PARA,"ABEL FIGUEIREDO, PARA, BRASIL",15,PA
15,Pará,Nordeste Paraense,Tomé-Açu,Acará,"Acará, Pará, Brasil",206,150020,1500206,12,4,403,null,null,-1.9634365,-48.20045643,Para,Acara,ACARA,PARA,"ACARA, PARA, BRASIL",15,PA
15,Pará,Marajó,Furos de Breves,Afuá,"Afuá, Pará, Brasil",305,150030,1500305,5,2,405,null,null,-0.159171694,-50.39142759,Para,Afua,AFUA,PARA,"AFUA, PARA, BRASIL",15,PA
15,Pará,Sudeste Paraense,Parauapebas,Água Azul do Norte,"Água Azul do Norte, Pará, Brasil",347,150034,1500347,19,6,383,null,null,-6.804948867,-50.48527451,Para,Agua Azul do Norte,AGUA AZUL DO NORTE,PARA,"AGUA AZUL DO NORTE, PARA, BRASIL",15,PA
15,Pará,Baixo Amazonas,Santarém,Alenquer,"Alenquer, Pará, Brasil",404,150040,1500404,2,1,407,null,null,-1.951397505,-54.74086235,Para,Alenquer,ALENQUER,PARA,"ALENQUER, PARA, BRASIL",15,PA
15,Pará,Baixo Amazonas,Almeirim,Almeirim,"Almeirim, Pará, Brasil",503,150050,1500503,3,1,409,null,null,-1.527338803,-52.57683509,Para,Almeirim,ALMEIRIM,PARA,"ALMEIRIM, PARA, BRASIL",15,PA
15,Pará,Sudoeste Paraense,Altamira,Altamira,"Altamira, Pará, Brasil",602,150060,1500602,15,5,411,null,null,-3.20565951,-52.21437631,Para,Altamira,ALTAMIRA,PARA,"ALTAMIRA, PARA, BRASIL",15,PA
15,Pará,Marajó,Furos de Breves,Anajás,"Anajás, Pará, Brasil",701,150070,1500701,5,2,413,null,null,-0.984451394,-49.94500104,Para,Anajas,ANAJAS,PARA,"ANAJAS, PARA, BRASIL",15,PA
15,Pará,Metropolitana de Belém,Belém,Ananindeua,"Ananindeua, Pará, Brasil",800,150080,1500800,7,3,415,null,null,-1.368713568,-48.37206665,Para,Ananindeua,ANANINDEUA,PARA,"ANANINDEUA, PARA, BRASIL",15,PA
15,Pará,Sudoeste Paraense,Altamira,Anapu,"Anapu, Pará, Brasil",859,150085,1500859,15,5,40,null,null,-3.476104635,-51.2016218,Para,Anapu,ANAPU,PARA,"ANAPU, PARA, BRASIL",15,PA
15,Pará,Nordeste Paraense,Bragantina,Augusto Corrêa,"Augusto Corrêa, Pará, Brasil",909,150090,1500909,10,4,417,null,null,-1.02292101,-46.64164579,Para,Augusto Correa,AUGUSTO CORREA,PARA,"AUGUSTO CORREA, PARA, BRASIL",15,PA
15,Pará,Nordeste Paraense,Guamá,Aurora do Pará,"Aurora do Pará, Pará, Brasil",958,150095,1500958,13,4,389,null,null,-2.129376013,-47.5561746,Para,Aurora do Para,AURORA DO PARA,PARA,"AURORA DO PARA, PARA, BRASIL",15,PA
15,Pará,Sudoeste Paraense,Itaituba,Aveiro,"Aveiro, Pará, Brasil",1006,150100,1501006,14,5,419,null,null,-3.605595259,-55.33073439,Para,Aveiro,AVEIRO,PARA,"AVEIRO, PARA, BRASIL",15,PA
15,Pará,Marajó,Portel,Bagre,"Bagre, Pará, Brasil",1105,150110,1501105,4,2,421,null,null,-1.88980806,-50.22198692,Para,Bagre,BAGRE,PARA,"BAGRE, PARA, BRASIL",15,PA
15,Pará,Nordeste Paraense,Cametá,Baião,"Baião, Pará, Brasil",1204,150120,1501204,11,4,423,null,null,-2.791961861,-49.67275337,Para,Baiao,BAIAO,PARA,"BAIAO, PARA, BRASIL",15,PA
15,Pará,Sudeste Paraense,São Félix do Xingu,Bannach,"Bannach, Pará, Brasil",1253,150125,1501253,18,6,42,null,null,-7.351072192,-50.40604712,Para,Bannach,BANNACH,PARA,"BANNACH, PARA, BRASIL",15,PA
15,Pará,Metropolitana de Belém,Belém,Barcarena,"Barcarena, Pará, Brasil",1303,150130,1501303,7,3,425,null,null,-1.505767005,-48.62707289,Para,Barcarena,BARCARENA,PARA,"BARCARENA, PARA, BRASIL",15,PA
15,Pará,Metropolitana de Belém,Belém,Belém,"Belém, Pará, Brasil",1402,150140,1501402,7,3,427,null,null,-1.459845,-48.48782569,Para,Belem,BELEM,PARA,"BELEM, PARA, BRASIL",15,PA
15,Pará,Baixo Amazonas,Santarém,Belterra,"Belterra, Pará, Brasil",1451,150145,1501451,2,1,44,null,null,-2.649020169,-54.94267474,Para,Belterra,BELTERRA,PARA,"BELTERRA, PARA, BRASIL",15,PA
15,Pará,Metropolitana de Belém,Belém,Benevides,"Benevides, Pará, Brasil",1501,150150,1501501,7,3,429,null,null,-1.361437515,-48.24183645,Para,Benevides,BENEVIDES,PARA,"BENEVIDES, PARA, BRASIL",15,PA
15,Pará,Sudeste Paraense,Paragominas,Bom Jesus do Tocantins,"Bom Jesus do Tocantins, Pará, Brasil",1576,150157,1501576,17,6,575,null,null,-5.047362704,-48.59903996,Para,Bom Jesus do Tocantins,BOM JESUS DO TOCANTINS,PARA,"BOM JESUS DO TOCANTINS, PARA, BRASIL",15,PA
15,Pará,Nordeste Paraense,Bragantina,Bonito,"Bonito, Pará, Brasil",1600,150160,1501600,10,4,431,null,null,-1.367474357,-47.30589182,Para,Bonito,BONITO,PARA,"BONITO, PARA, BRASIL",15,PA
15,Pará,Nordeste Paraense,Bragantina,Bragança,"Bragança, Pará, Brasil",1709,150170,1501709,10,4,433,null,null,-1.053523956,-46.76575421,Para,Braganca,BRAGANCA,PARA,"BRAGANCA, PARA, BRASIL",15,PA
15,Pará,Sudoeste Paraense,Altamira,Brasil Novo,"Brasil Novo, Pará, Brasil",1725,150172,1501725,15,5,639,null,null,-3.297803704,-52.54344119,Para,Brasil Novo,BRASIL NOVO,PARA,"BRASIL NOVO, PARA, BRASIL",15,PA
15,Pará,Sudeste Paraense,Marabá,Brejo Grande do Araguaia,"Brejo Grande do Araguaia, Pará, Brasil",1758,150175,1501758,20,6,577,null,null,-5.707296154,-48.40576042,Para,Brejo Grande do Araguaia,BREJO GRANDE DO ARAGUAIA,PARA,"BREJO GRANDE DO ARAGUAIA, PARA, BRASIL",15,PA
15,Pará,Sudeste Paraense,Tucuruí,Breu Branco,"Breu Branco, Pará, Brasil",1782,150178,1501782,16,6,625,null,null,-3.778135413,-49.56987968,Para,Breu Branco,BREU BRANCO,PARA,"BREU BRANCO, PARA, BRASIL",15,PA
15,Pará,Marajó,Furos de Breves,Breves,"Breves, Pará, Brasil",1808,150180,1501808,5,2,435,null,null,-1.6907365,-50.4808948,Para,Breves,BREVES,PARA,"BREVES, PARA, BRASIL",15,PA
15,Pará,Metropolitana de Belém,Castanhal,Bujaru,"Bujaru, Pará, Brasil",1907,150190,1501907,8,3,437,null,null,-1.513991462,-48.03587501,Para,Bujaru,BUJARU,PARA,"BUJARU, PARA, BRASIL",15,PA
15,Pará,Marajó,Arari,Cachoeira do Arari,"Cachoeira do Arari, Pará, Brasil",2004,150200,1502004,6,2,439,null,null,-1.008786266,-48.96066758,Para,Cachoeira do Arari,CACHOEIRA DO ARARI,PARA,"CACHOEIRA DO ARARI, PARA, BRASIL",15,PA
15,Pará,Nordeste Paraense,Guamá,Cachoeira do Piriá,"Cachoeira do Piriá, Pará, Brasil",1956,150195,1501956,13,4,46,null,null,-1.752897005,-46.54739142,Para,Cachoeira do Piria,CACHOEIRA DO PIRIA,PARA,"CACHOEIRA DO PIRIA, PARA, BRASIL",15,PA
15,Pará,Nordeste Paraense,Cametá,Cametá,"Cametá, Pará, Brasil",2103,150210,1502103,11,4,441,null,null,-2.24683848,-49.49783017,Para,Cameta,CAMETA,PARA,"CAMETA, PARA, BRASIL",15,PA
15,Pará,Sudeste Paraense,Parauapebas,Canaã dos Carajás,"Canaã dos Carajás, Pará, Brasil",2152,150215,1502152,19,6,48,null,null,-6.532196616,-49.84895843,Para,Canaa dos Carajas,CANAA DOS CARAJAS,PARA,"CANAA DOS CARAJAS, PARA, BRASIL",15,PA
15,Pará,Nordeste Paraense,Bragantina,Capanema,"Capanema, Pará, Brasil",2202,150220,1502202,10,4,443,null,null,-1.192441995,-47.17512612,Para,Capanema,CAPANEMA,PARA,"CAPANEMA, PARA, BRASIL",15,PA
15,Pará,Nordeste Paraense,Guamá,Capitão Poço,"Capitão Poço, Pará, Brasil",2301,150230,1502301,13,4,445,null,null,-1.746187293,-47.06282538,Para,Capitao Poco,CAPITAO POCO,PARA,"CAPITAO POCO, PARA, BRASIL",15,PA
15,Pará,Metropolitana de Belém,Castanhal,Castanhal,"Castanhal, Pará, Brasil",2400,150240,1502400,8,3,447,null,null,-1.295756805,-47.92664314,Para,Castanhal,CASTANHAL,PARA,"CASTANHAL, PARA, BRASIL",15,PA
15,Pará,Marajó,Arari,Chaves,"Chaves, Pará, Brasil",2509,150250,1502509,6,2,449,null,null,-0.16243729,-49.98931861,Para,Chaves,CHAVES,PARA,"CHAVES, PARA, BRASIL",15,PA
15,Pará,Nordeste Paraense,Salgado,Colares,"Colares, Pará, Brasil",2608,150260,1502608,9,4,451,null,null,-0.932091244,-48.28872843,Para,Colares,COLARES,PARA,"COLARES, PARA, BRASIL",15,PA
15,Pará,Sudeste Paraense,Conceição do Araguaia,Conceição do Araguaia,"Conceição do Araguaia, Pará, Brasil",2707,150270,1502707,22,6,453,null,null,-8.26486353,-49.26450081,Para,Conceicao do Araguaia,CONCEICAO DO ARAGUAIA,PARA,"CONCEICAO DO ARAGUAIA, PARA, BRASIL",15,PA
15,Pará,Nordeste Paraense,Tomé-Açu,Concórdia do Pará,"Concórdia do Pará, Pará, Brasil",2756,150275,1502756,12,4,579,null,null,-1.984521463,-47.94988694,Para,Concordia do Para,CONCORDIA DO PARA,PARA,"CONCORDIA DO PARA, PARA, BRASIL",15,PA
15,Pará,Sudeste Paraense,São Félix do Xingu,Cumaru do Norte,"Cumaru do Norte, Pará, Brasil",2764,150276,1502764,18,6,385,null,null,-7.811106537,-50.77157838,Para,Cumaru do Norte,CUMARU DO NORTE,PARA,"CUMARU DO NORTE, PARA, BRASIL",15,PA
15,Pará,Sudeste Paraense,Parauapebas,Curionópolis,"Curionópolis, Pará, Brasil",2772,150277,1502772,19,6,581,null,null,-6.096819952,-49.60221422,Para,Curionopolis,CURIONOPOLIS,PARA,"CURIONOPOLIS, PARA, BRASIL",15,PA
15,Pará,Marajó,Furos de Breves,Curralinho,"Curralinho, Pará, Brasil",2806,150280,1502806,5,2,455,null,null,-1.80942342,-49.79152285,Para,Curralinho,CURRALINHO,PARA,"CURRALINHO, PARA, BRASIL",15,PA
15,Pará,Baixo Amazonas,Santarém,Curuá,"Curuá, Pará, Brasil",2855,150285,1502855,2,1,50,null,null,-1.889928704,-55.11967861,Para,Curua,CURUA,PARA,"CURUA, PARA, BRASIL",15,PA
15,Pará,Nordeste Paraense,Salgado,Curuçá,"Curuçá, Pará, Brasil",2905,150290,1502905,9,4,457,null,null,-0.73249551,-47.85126509,Para,Curuca,CURUCA,PARA,"CURUCA, PARA, BRASIL",15,PA
15,Pará,Sudeste Paraense,Paragominas,Dom Eliseu,"Dom Eliseu, Pará, Brasil",2939,150293,1502939,17,6,583,null,null,-4.29077772,-47.55591489,Para,Dom Eliseu,DOM ELISEU,PARA,"DOM ELISEU, PARA, BRASIL",15,PA
15,Pará,Sudeste Paraense,Parauapebas,Eldorado do Carajás,"Eldorado do Carajás, Pará, Brasil",2954,150295,1502954,19,6,377,null,null,-6.103525161,-49.37395194,Para,Eldorado do Carajas,ELDORADO DO CARAJAS,PARA,"ELDORADO DO CARAJAS, PARA, BRASIL",15,PA
15,Pará,Baixo Amazonas,Óbidos,Faro,"Faro, Pará, Brasil",3002,150300,1503002,1,1,459,null,null,-2.172975242,-56.74575302,Para,Faro,FARO,PARA,"FARO, PARA, BRASIL",15,PA
15,Pará,Sudeste Paraense,Conceição do Araguaia,Floresta do Araguaia,"Floresta do Araguaia, Pará, Brasil",3044,150304,1503044,22,6,52,null,null,-7.558700872,-49.69757841,Para,Floresta do Araguaia,FLORESTA DO ARAGUAIA,PARA,"FLORESTA DO ARAGUAIA, PARA, BRASIL",15,PA
15,Pará,Nordeste Paraense,Guamá,Garrafão do Norte,"Garrafão do Norte, Pará, Brasil",3077,150307,1503077,13,4,585,null,null,-1.931697043,-47.04504602,Para,Garrafao do Norte,GARRAFAO DO NORTE,PARA,"GARRAFAO DO NORTE, PARA, BRASIL",15,PA
15,Pará,Sudeste Paraense,Paragominas,Goianésia do Pará,"Goianésia do Pará, Pará, Brasil",3093,150309,1503093,17,6,627,null,null,-3.842468,-49.10104492,Para,Goianesia do Para,GOIANESIA DO PARA,PARA,"GOIANESIA DO PARA, PARA, BRASIL",15,PA
15,Pará,Marajó,Portel,Gurupá,"Gurupá, Pará, Brasil",3101,150310,1503101,4,2,461,null,null,-1.404918,-51.64369572,Para,Gurupa,GURUPA,PARA,"GURUPA, PARA, BRASIL",15,PA
15,Pará,Nordeste Paraense,Bragantina,Igarapé-Açu,"Igarapé-Açu, Pará, Brasil",3200,150320,1503200,10,4,463,null,null,-1.124322,-47.62237549,Para,Igarape-Acu,IGARAPE-ACU,PARA,"IGARAPE-ACU, PARA, BRASIL",15,PA
15,Pará,Nordeste Paraense,Cametá,Igarapé-Miri,"Igarapé-Miri, Pará, Brasil",3309,150330,1503309,11,4,465,null,null,-1.983116,-48.96229947,Para,Igarape-Miri,IGARAPE-MIRI,PARA,"IGARAPE-MIRI, PARA, BRASIL",15,PA
15,Pará,Metropolitana de Belém,Castanhal,Inhangapi,"Inhangapi, Pará, Brasil",3408,150340,1503408,8,3,467,null,null,-1.426581981,-47.91339275,Para,Inhangapi,INHANGAPI,PARA,"INHANGAPI, PARA, BRASIL",15,PA
15,Pará,Nordeste Paraense,Guamá,Ipixuna do Pará,"Ipixuna do Pará, Pará, Brasil",3457,150345,1503457,13,4,621,null,null,-2.5575285,-47.49971759,Para,Ipixuna do Para,IPIXUNA DO PARA,PARA,"IPIXUNA DO PARA, PARA, BRASIL",15,PA
15,Pará,Nordeste Paraense,Guamá,Irituia,"Irituia, Pará, Brasil",3507,150350,1503507,13,4,469,null,null,-1.771474995,-47.44075561,Para,Irituia,IRITUIA,PARA,"IRITUIA, PARA, BRASIL",15,PA
15,Pará,Sudoeste Paraense,Itaituba,Itaituba,"Itaituba, Pará, Brasil",3606,150360,1503606,14,5,471,null,null,-4.26372948,-55.99004886,Para,Itaituba,ITAITUBA,PARA,"ITAITUBA, PARA, BRASIL",15,PA
15,Pará,Sudeste Paraense,Tucuruí,Itupiranga,"Itupiranga, Pará, Brasil",3705,150370,1503705,16,6,473,null,null,-5.128837026,-49.32442586,Para,Itupiranga,ITUPIRANGA,PARA,"ITUPIRANGA, PARA, BRASIL",15,PA
15,Pará,Sudoeste Paraense,Itaituba,Jacareacanga,"Jacareacanga, Pará, Brasil",3754,150375,1503754,14,5,631,null,null,-6.223551731,-57.76633986,Para,Jacareacanga,JACAREACANGA,PARA,"JACAREACANGA, PARA, BRASIL",15,PA
15,Pará,Sudeste Paraense,Tucuruí,Jacundá,"Jacundá, Pará, Brasil",3804,150380,1503804,16,6,475,null,null,-4.448405475,-49.11278156,Para,Jacunda,JACUNDA,PARA,"JACUNDA, PARA, BRASIL",15,PA
15,Pará,Baixo Amazonas,Óbidos,Juruti,"Juruti, Pará, Brasil",3903,150390,1503903,1,1,477,null,null,-2.155252995,-56.09499769,Para,Juruti,JURUTI,PARA,"JURUTI, PARA, BRASIL",15,PA
15,Pará,Nordeste Paraense,Cametá,Limoeiro do Ajuru,"Limoeiro do Ajuru, Pará, Brasil",4000,150400,1504000,11,4,479,null,null,-1.8919485,-49.3815339,Para,Limoeiro do Ajuru,LIMOEIRO DO AJURU,PARA,"LIMOEIRO DO AJURU, PARA, BRASIL",15,PA
15,Pará,Nordeste Paraense,Guamá,Mãe do Rio,"Mãe do Rio, Pará, Brasil",4059,150405,1504059,13,4,587,null,null,-2.047707441,-47.55229018,Para,Mae do Rio,MAE DO RIO,PARA,"MAE DO RIO, PARA, BRASIL",15,PA
15,Pará,Nordeste Paraense,Salgado,Magalhães Barata,"Magalhães Barata, Pará, Brasil",4109,150410,1504109,9,4,481,null,null,-0.795850156,-47.5991819,Para,Magalhaes Barata,MAGALHAES BARATA,PARA,"MAGALHAES BARATA, PARA, BRASIL",15,PA
15,Pará,Sudeste Paraense,Marabá,Marabá,"Marabá, Pará, Brasil",4208,150420,1504208,20,6,483,null,null,-5.352605763,-49.14202533,Para,Maraba,MARABA,PARA,"MARABA, PARA, BRASIL",15,PA
15,Pará,Nordeste Paraense,Salgado,Maracanã,"Maracanã, Pará, Brasil",4307,150430,1504307,9,4,485,null,null,-0.76241946,-47.45526796,Para,Maracana,MARACANA,PARA,"MARACANA, PARA, BRASIL",15,PA
15,Pará,Nordeste Paraense,Salgado,Marapanim,"Marapanim, Pará, Brasil",4406,150440,1504406,9,4,487,null,null,-0.712150996,-47.70254875,Para,Marapanim,MARAPANIM,PARA,"MARAPANIM, PARA, BRASIL",15,PA
15,Pará,Metropolitana de Belém,Belém,Marituba,"Marituba, Pará, Brasil",4422,150442,1504422,7,3,54,null,null,-1.346417266,-48.34053588,Para,Marituba,MARITUBA,PARA,"MARITUBA, PARA, BRASIL",15,PA
15,Pará,Sudoeste Paraense,Altamira,Medicilândia,"Medicilândia, Pará, Brasil",4455,150445,1504455,15,5,589,null,null,-3.445417412,-52.88834535,Para,Medicilandia,MEDICILANDIA,PARA,"MEDICILANDIA, PARA, BRASIL",15,PA
15,Pará,Marajó,Portel,Melgaço,"Melgaço, Pará, Brasil",4505,150450,1504505,4,2,489,null,null,-1.803446699,-50.7174647,Para,Melgaco,MELGACO,PARA,"MELGACO, PARA, BRASIL",15,PA
15,Pará,Nordeste Paraense,Cametá,Mocajuba,"Mocajuba, Pará, Brasil",4604,150460,1504604,11,4,491,null,null,-2.582872973,-49.50902346,Para,Mocajuba,MOCAJUBA,PARA,"MOCAJUBA, PARA, BRASIL",15,PA
15,Pará,Nordeste Paraense,Tomé-Açu,Moju,"Moju, Pará, Brasil",4703,150470,1504703,12,4,493,null,null,-1.885889,-48.76719913,Para,Moju,MOJU,PARA,"MOJU, PARA, BRASIL",15,PA
15,Pará,Baixo Amazonas,Santarém,Mojuí dos Campos,"Mojuí dos Campos, Pará, Brasil",4752,150475,1504752,2,1,1190,null,null,-2.68472,-54.6431,Para,Mojui dos Campos,MOJUI DOS CAMPOS,PARA,"MOJUI DOS CAMPOS, PARA, BRASIL",15,PA
15,Pará,Baixo Amazonas,Santarém,Monte Alegre,"Monte Alegre, Pará, Brasil",4802,150480,1504802,2,1,495,null,null,-2.003328,-54.07337473,Para,Monte Alegre,MONTE ALEGRE,PARA,"MONTE ALEGRE, PARA, BRASIL",15,PA
15,Pará,Marajó,Arari,Muaná,"Muaná, Pará, Brasil",4901,150490,1504901,6,2,497,null,null,-1.530026208,-49.21683244,Para,Muana,MUANA,PARA,"MUANA, PARA, BRASIL",15,PA
15,Pará,Nordeste Paraense,Guamá,Nova Esperança do Piriá,"Nova Esperança do Piriá, Pará, Brasil",4950,150495,1504950,13,4,391,null,null,-2.267625989,-46.96209288,Para,Nova Esperanca do Piria,NOVA ESPERANCA DO PIRIA,PARA,"NOVA ESPERANCA DO PIRIA, PARA, BRASIL",15,PA
15,Pará,Sudeste Paraense,Tucuruí,Nova Ipixuna,"Nova Ipixuna, Pará, Brasil",4976,150497,1504976,16,6,56,null,null,-4.923086307,-49.07988694,Para,Nova Ipixuna,NOVA IPIXUNA,PARA,"NOVA IPIXUNA, PARA, BRASIL",15,PA
15,Pará,Nordeste Paraense,Bragantina,Nova Timboteua,"Nova Timboteua, Pará, Brasil",5007,150500,1505007,10,4,499,null,null,-1.204143647,-47.39320228,Para,Nova Timboteua,NOVA TIMBOTEUA,PARA,"NOVA TIMBOTEUA, PARA, BRASIL",15,PA
15,Pará,Sudoeste Paraense,Itaituba,Novo Progresso,"Novo Progresso, Pará, Brasil",5031,150503,1505031,14,5,633,null,null,-7.034835913,-55.41987012,Para,Novo Progresso,NOVO PROGRESSO,PARA,"NOVO PROGRESSO, PARA, BRASIL",15,PA
15,Pará,Sudeste Paraense,Tucuruí,Novo Repartimento,"Novo Repartimento, Pará, Brasil",5064,150506,1505064,16,6,629,null,null,-4.2481485,-49.94863824,Para,Novo Repartimento,NOVO REPARTIMENTO,PARA,"NOVO REPARTIMENTO, PARA, BRASIL",15,PA
15,Pará,Baixo Amazonas,Óbidos,Óbidos,"Óbidos, Pará, Brasil",5106,150510,1505106,1,1,501,null,null,-1.909235496,-55.51632351,Para,Obidos,OBIDOS,PARA,"OBIDOS, PARA, BRASIL",15,PA
15,Pará,Nordeste Paraense,Cametá,Oeiras do Pará,"Oeiras do Pará, Pará, Brasil",5205,150520,1505205,11,4,503,null,null,-2.004734,-49.85510611,Para,Oeiras do Para,OEIRAS DO PARA,PARA,"OEIRAS DO PARA, PARA, BRASIL",15,PA
15,Pará,Baixo Amazonas,Óbidos,Oriximiná,"Oriximiná, Pará, Brasil",5304,150530,1505304,1,1,505,null,null,-1.7637535,-55.86279952,Para,Oriximina,ORIXIMINA,PARA,"ORIXIMINA, PARA, BRASIL",15,PA
15,Pará,Nordeste Paraense,Guamá,Ourém,"Ourém, Pará, Brasil",5403,150540,1505403,13,4,507,null,null,-1.548947142,-47.11761936,Para,Ourem,OUREM,PARA,"OUREM, PARA, BRASIL",15,PA
15,Pará,Sudeste Paraense,São Félix do Xingu,Ourilândia do Norte,"Ourilândia do Norte, Pará, Brasil",5437,150543,1505437,18,6,591,null,null,-6.740617086,-51.09083277,Para,Ourilandia do Norte,OURILANDIA DO NORTE,PARA,"OURILANDIA DO NORTE, PARA, BRASIL",15,PA
15,Pará,Sudoeste Paraense,Altamira,Pacajá,"Pacajá, Pará, Brasil",5486,150548,1505486,15,5,593,null,null,-3.830305704,-50.63484083,Para,Pacaja,PACAJA,PARA,"PACAJA, PARA, BRASIL",15,PA
15,Pará,Sudeste Paraense,Marabá,Palestina do Pará,"Palestina do Pará, Pará, Brasil",5494,150549,1505494,20,6,379,null,null,-5.749934106,-48.32179373,Para,Palestina do Para,PALESTINA DO PARA,PARA,"PALESTINA DO PARA, PARA, BRASIL",15,PA
15,Pará,Sudeste Paraense,Paragominas,Paragominas,"Paragominas, Pará, Brasil",5502,150550,1505502,17,6,509,null,null,-2.9941905,-47.35696156,Para,Paragominas,PARAGOMINAS,PARA,"PARAGOMINAS, PARA, BRASIL",15,PA
15,Pará,Sudeste Paraense,Parauapebas,Parauapebas,"Parauapebas, Pará, Brasil",5536,150553,1505536,19,6,595,null,null,-6.072729888,-49.90078063,Para,Parauapebas,PARAUAPEBAS,PARA,"PARAUAPEBAS, PARA, BRASIL",15,PA
15,Pará,Sudeste Paraense,Redenção,Pau D'Arco,"Pau D'Arco, Pará, Brasil",5551,150555,1505551,21,6,387,null,null,-7.836794404,-50.04827553,Para,Pau D'Arco,PAU D'ARCO,PARA,"PAU D'ARCO, PARA, BRASIL",15,PA
15,Pará,Nordeste Paraense,Bragantina,Peixe-Boi,"Peixe-Boi, Pará, Brasil",5601,150560,1505601,10,4,511,null,null,-1.189569241,-47.31792702,Para,Peixe-Boi,PEIXE-BOI,PARA,"PEIXE-BOI, PARA, BRASIL",15,PA
15,Pará,Sudeste Paraense,Redenção,Piçarra,"Piçarra, Pará, Brasil",5635,150563,1505635,21,6,58,null,null,-6.453676235,-48.86840067,Para,Picarra,PICARRA,PARA,"PICARRA, PARA, BRASIL",15,PA
15,Pará,Baixo Amazonas,Santarém,Placas,"Placas, Pará, Brasil",5650,150565,1505650,2,1,60,null,null,-3.867315562,-54.21696813,Para,Placas,PLACAS,PARA,"PLACAS, PARA, BRASIL",15,PA
15,Pará,Marajó,Arari,Ponta de Pedras,"Ponta de Pedras, Pará, Brasil",5700,150570,1505700,6,2,513,null,null,-1.396599998,-48.87178556,Para,Ponta de Pedras,PONTA DE PEDRAS,PARA,"PONTA DE PEDRAS, PARA, BRASIL",15,PA
15,Pará,Marajó,Portel,Portel,"Portel, Pará, Brasil",5809,150580,1505809,4,2,515,null,null,-1.936451,-50.82249044,Para,Portel,PORTEL,PARA,"PORTEL, PARA, BRASIL",15,PA
15,Pará,Baixo Amazonas,Almeirim,Porto de Moz,"Porto de Moz, Pará, Brasil",5908,150590,1505908,3,1,517,null,null,-1.746090089,-52.24247692,Para,Porto de Moz,PORTO DE MOZ,PARA,"PORTO DE MOZ, PARA, BRASIL",15,PA
15,Pará,Baixo Amazonas,Santarém,Prainha,"Prainha, Pará, Brasil",6005,150600,1506005,2,1,519,null,null,-1.8056945,-53.48181394,Para,Prainha,PRAINHA,PARA,"PRAINHA, PARA, BRASIL",15,PA
15,Pará,Nordeste Paraense,Bragantina,Primavera,"Primavera, Pará, Brasil",6104,150610,1506104,10,4,521,null,null,-0.940111516,-47.11725126,Para,Primavera,PRIMAVERA,PARA,"PRIMAVERA, PARA, BRASIL",15,PA
15,Pará,Nordeste Paraense,Bragantina,Quatipuru,"Quatipuru, Pará, Brasil",6112,150611,1506112,10,4,62,null,null,-0.900115854,-47.00678699,Para,Quatipuru,QUATIPURU,PARA,"QUATIPURU, PARA, BRASIL",15,PA
15,Pará,Sudeste Paraense,Redenção,Redenção,"Redenção, Pará, Brasil",6138,150613,1506138,21,6,567,null,null,-8.0276045,-50.02964183,Para,Redencao,REDENCAO,PARA,"REDENCAO, PARA, BRASIL",15,PA
15,Pará,Sudeste Paraense,Redenção,Rio Maria,"Rio Maria, Pará, Brasil",6161,150616,1506161,21,6,569,null,null,-7.311115245,-50.04641088,Para,Rio Maria,RIO MARIA,PARA,"RIO MARIA, PARA, BRASIL",15,PA
15,Pará,Sudeste Paraense,Paragominas,Rondon do Pará,"Rondon do Pará, Pará, Brasil",6187,150618,1506187,17,6,573,null,null,-4.777821727,-48.06997375,Para,Rondon do Para,RONDON DO PARA,PARA,"RONDON DO PARA, PARA, BRASIL",15,PA
15,Pará,Sudoeste Paraense,Itaituba,Rurópolis,"Rurópolis, Pará, Brasil",6195,150619,1506195,14,5,597,null,null,-4.09906539,-54.90586226,Para,Ruropolis,RUROPOLIS,PARA,"RUROPOLIS, PARA, BRASIL",15,PA
15,Pará,Nordeste Paraense,Salgado,Salinópolis,"Salinópolis, Pará, Brasil",6203,150620,1506203,9,4,523,null,null,-0.623638,-47.35312026,Para,Salinopolis,SALINOPOLIS,PARA,"SALINOPOLIS, PARA, BRASIL",15,PA
15,Pará,Marajó,Arari,Salvaterra,"Salvaterra, Pará, Brasil",6302,150630,1506302,6,2,525,null,null,-0.754525974,-48.5131866,Para,Salvaterra,SALVATERRA,PARA,"SALVATERRA, PARA, BRASIL",15,PA
15,Pará,Metropolitana de Belém,Belém,Santa Bárbara do Pará,"Santa Bárbara do Pará, Pará, Brasil",6351,150635,1506351,7,3,369,null,null,-1.229439467,-48.29774065,Para,Santa Barbara do Para,SANTA BARBARA DO PARA,PARA,"SANTA BARBARA DO PARA, PARA, BRASIL",15,PA
15,Pará,Marajó,Arari,Santa Cruz do Arari,"Santa Cruz do Arari, Pará, Brasil",6401,150640,1506401,6,2,527,null,null,-0.659974126,-49.17161557,Para,Santa Cruz do Arari,SANTA CRUZ DO ARARI,PARA,"SANTA CRUZ DO ARARI, PARA, BRASIL",15,PA
15,Pará,Metropolitana de Belém,Castanhal,Santa Izabel do Pará,"Santa Izabel do Pará, Pará, Brasil",6500,150650,1506500,8,3,529,null,null,-1.297395901,-48.16305994,Para,Santa Izabel do Para,SANTA IZABEL DO PARA,PARA,"SANTA IZABEL DO PARA, PARA, BRASIL",15,PA
15,Pará,Nordeste Paraense,Guamá,Santa Luzia do Pará,"Santa Luzia do Pará, Pará, Brasil",6559,150655,1506559,13,4,371,null,null,-1.518827891,-46.9061692,Para,Santa Luzia do Para,SANTA LUZIA DO PARA,PARA,"SANTA LUZIA DO PARA, PARA, BRASIL",15,PA
15,Pará,Sudeste Paraense,Conceição do Araguaia,Santa Maria das Barreiras,"Santa Maria das Barreiras, Pará, Brasil",6583,150658,1506583,22,6,599,null,null,-8.87055054,-49.71935186,Para,Santa Maria das Barreiras,SANTA MARIA DAS BARREIRAS,PARA,"SANTA MARIA DAS BARREIRAS, PARA, BRASIL",15,PA
15,Pará,Nordeste Paraense,Bragantina,Santa Maria do Pará,"Santa Maria do Pará, Pará, Brasil",6609,150660,1506609,10,4,531,null,null,-1.347866459,-47.57469541,Para,Santa Maria do Para,SANTA MARIA DO PARA,PARA,"SANTA MARIA DO PARA, PARA, BRASIL",15,PA
15,Pará,Sudeste Paraense,Conceição do Araguaia,Santana do Araguaia,"Santana do Araguaia, Pará, Brasil",6708,150670,1506708,22,6,533,null,null,-9.329424525,-50.34480432,Para,Santana do Araguaia,SANTANA DO ARAGUAIA,PARA,"SANTANA DO ARAGUAIA, PARA, BRASIL",15,PA
15,Pará,Baixo Amazonas,Santarém,Santarém,"Santarém, Pará, Brasil",6807,150680,1506807,2,1,535,null,null,-2.43621333,-54.71857017,Para,Santarem,SANTAREM,PARA,"SANTAREM, PARA, BRASIL",15,PA
15,Pará,Nordeste Paraense,Bragantina,Santarém Novo,"Santarém Novo, Pará, Brasil",6906,150690,1506906,10,4,537,null,null,-0.928719536,-47.40092474,Para,Santarem Novo,SANTAREM NOVO,PARA,"SANTAREM NOVO, PARA, BRASIL",15,PA
15,Pará,Metropolitana de Belém,Castanhal,Santo Antônio do Tauá,"Santo Antônio do Tauá, Pará, Brasil",7003,150700,1507003,8,3,539,null,null,-1.1516925,-48.13243307,Para,Santo Antonio do Taua,SANTO ANTONIO DO TAUA,PARA,"SANTO ANTONIO DO TAUA, PARA, BRASIL",15,PA
15,Pará,Nordeste Paraense,Salgado,São Caetano de Odivelas,"São Caetano de Odivelas, Pará, Brasil",7102,150710,1507102,9,4,541,null,null,-0.74661776,-48.0258055,Para,Sao Caetano de Odivelas,SAO CAETANO DE ODIVELAS,PARA,"SAO CAETANO DE ODIVELAS, PARA, BRASIL",15,PA
15,Pará,Sudeste Paraense,Marabá,São Domingos do Araguaia,"São Domingos do Araguaia, Pará, Brasil",7151,150715,1507151,20,6,381,null,null,-5.549841,-48.72037341,Para,Sao Domingos do Araguaia,SAO DOMINGOS DO ARAGUAIA,PARA,"SAO DOMINGOS DO ARAGUAIA, PARA, BRASIL",15,PA
15,Pará,Nordeste Paraense,Guamá,São Domingos do Capim,"São Domingos do Capim, Pará, Brasil",7201,150720,1507201,13,4,543,null,null,-1.6758145,-47.77478457,Para,Sao Domingos do Capim,SAO DOMINGOS DO CAPIM,PARA,"SAO DOMINGOS DO CAPIM, PARA, BRASIL",15,PA
15,Pará,Sudeste Paraense,São Félix do Xingu,São Félix do Xingu,"São Félix do Xingu, Pará, Brasil",7300,150730,1507300,18,6,545,null,null,-6.642483278,-51.99378252,Para,Sao Felix do Xingu,SAO FELIX DO XINGU,PARA,"SAO FELIX DO XINGU, PARA, BRASIL",15,PA
15,Pará,Nordeste Paraense,Bragantina,São Francisco do Pará,"São Francisco do Pará, Pará, Brasil",7409,150740,1507409,10,4,547,null,null,-1.170188785,-47.79051461,Para,Sao Francisco do Para,SAO FRANCISCO DO PARA,PARA,"SAO FRANCISCO DO PARA, PARA, BRASIL",15,PA
15,Pará,Sudeste Paraense,Redenção,São Geraldo do Araguaia,"São Geraldo do Araguaia, Pará, Brasil",7458,150745,1507458,21,6,619,null,null,-6.39895797,-48.55571249,Para,Sao Geraldo do Araguaia,SAO GERALDO DO ARAGUAIA,PARA,"SAO GERALDO DO ARAGUAIA, PARA, BRASIL",15,PA
15,Pará,Nordeste Paraense,Salgado,São João da Ponta,"São João da Ponta, Pará, Brasil",7466,150746,1507466,9,4,64,null,null,-0.851002145,-47.92072417,Para,Sao Joao da Ponta,SAO JOAO DA PONTA,PARA,"SAO JOAO DA PONTA, PARA, BRASIL",15,PA
15,Pará,Nordeste Paraense,Salgado,São João de Pirabas,"São João de Pirabas, Pará, Brasil",7474,150747,1507474,9,4,393,null,null,-0.766442532,-47.1726743,Para,Sao Joao de Pirabas,SAO JOAO DE PIRABAS,PARA,"SAO JOAO DE PIRABAS, PARA, BRASIL",15,PA
15,Pará,Sudeste Paraense,Marabá,São João do Araguaia,"São João do Araguaia, Pará, Brasil",7508,150750,1507508,20,6,549,null,null,-5.359002724,-48.7886334,Para,Sao Joao do Araguaia,SAO JOAO DO ARAGUAIA,PARA,"SAO JOAO DO ARAGUAIA, PARA, BRASIL",15,PA
15,Pará,Nordeste Paraense,Guamá,São Miguel do Guamá,"São Miguel do Guamá, Pará, Brasil",7607,150760,1507607,13,4,551,null,null,-1.617135914,-47.48240894,Para,Sao Miguel do Guama,SAO MIGUEL DO GUAMA,PARA,"SAO MIGUEL DO GUAMA, PARA, BRASIL",15,PA
15,Pará,Marajó,Furos de Breves,São Sebastião da Boa Vista,"São Sebastião da Boa Vista, Pará, Brasil",7706,150770,1507706,5,2,553,null,null,-1.7188505,-49.53231217,Para,Sao Sebastiao da Boa Vista,SAO SEBASTIAO DA BOA VISTA,PARA,"SAO SEBASTIAO DA BOA VISTA, PARA, BRASIL",15,PA
15,Pará,Sudeste Paraense,Redenção,Sapucaia,"Sapucaia, Pará, Brasil",7755,150775,1507755,21,6,66,null,null,-6.942857113,-49.70358071,Para,Sapucaia,SAPUCAIA,PARA,"SAPUCAIA, PARA, BRASIL",15,PA
15,Pará,Sudoeste Paraense,Altamira,Senador José Porfírio,"Senador José Porfírio, Pará, Brasil",7805,150780,1507805,15,5,555,null,null,-2.594850418,-51.95305642,Para,Senador Jose Porfirio,SENADOR JOSE PORFIRIO,PARA,"SENADOR JOSE PORFIRIO, PARA, BRASIL",15,PA
15,Pará,Marajó,Arari,Soure,"Soure, Pará, Brasil",7904,150790,1507904,6,2,557,null,null,-0.7259255,-48.51601266,Para,Soure,SOURE,PARA,"SOURE, PARA, BRASIL",15,PA
15,Pará,Nordeste Paraense,Tomé-Açu,Tailândia,"Tailândia, Pará, Brasil",7953,150795,1507953,12,4,395,null,null,-2.9370795,-48.95128163,Para,Tailandia,TAILANDIA,PARA,"TAILANDIA, PARA, BRASIL",15,PA
15,Pará,Nordeste Paraense,Salgado,Terra Alta,"Terra Alta, Pará, Brasil",7961,150796,1507961,9,4,373,null,null,-1.034826664,-47.90780835,Para,Terra Alta,TERRA ALTA,PARA,"TERRA ALTA, PARA, BRASIL",15,PA
15,Pará,Baixo Amazonas,Óbidos,Terra Santa,"Terra Santa, Pará, Brasil",7979,150797,1507979,1,1,637,null,null,-2.108114474,-56.49090477,Para,Terra Santa,TERRA SANTA,PARA,"TERRA SANTA, PARA, BRASIL",15,PA
15,Pará,Nordeste Paraense,Tomé-Açu,Tomé-Açu,"Tomé-Açu, Pará, Brasil",8001,150800,1508001,12,4,559,null,null,-2.419366855,-48.14689659,Para,Tome-Acu,TOME-ACU,PARA,"TOME-ACU, PARA, BRASIL",15,PA
15,Pará,Nordeste Paraense,Bragantina,Tracuateua,"Tracuateua, Pará, Brasil",8035,150803,1508035,10,4,68,null,null,-1.068784059,-46.89947834,Para,Tracuateua,TRACUATEUA,PARA,"TRACUATEUA, PARA, BRASIL",15,PA
15,Pará,Sudoeste Paraense,Itaituba,Trairão,"Trairão, Pará, Brasil",8050,150805,1508050,14,5,635,null,null,-4.69981915,-55.99617003,Para,Trairao,TRAIRAO,PARA,"TRAIRAO, PARA, BRASIL",15,PA
15,Pará,Sudeste Paraense,São Félix do Xingu,Tucumã,"Tucumã, Pará, Brasil",8084,150808,1508084,18,6,397,null,null,-6.749972007,-51.13953925,Para,Tucuma,TUCUMA,PARA,"TUCUMA, PARA, BRASIL",15,PA
15,Pará,Sudeste Paraense,Tucuruí,Tucuruí,"Tucuruí, Pará, Brasil",8100,150810,1508100,16,6,561,null,null,-3.766889084,-49.66718437,Para,Tucurui,TUCURUI,PARA,"TUCURUI, PARA, BRASIL",15,PA
15,Pará,Sudeste Paraense,Paragominas,Ulianópolis,"Ulianópolis, Pará, Brasil",8126,150812,1508126,17,6,623,null,null,-3.75719301,-47.50314475,Para,Ulianopolis,ULIANOPOLIS,PARA,"ULIANOPOLIS, PARA, BRASIL",15,PA
15,Pará,Sudoeste Paraense,Altamira,Uruará,"Uruará, Pará, Brasil",8159,150815,1508159,15,5,399,null,null,-3.7065285,-53.73703105,Para,Uruara,URUARA,PARA,"URUARA, PARA, BRASIL",15,PA
15,Pará,Nordeste Paraense,Salgado,Vigia,"Vigia, Pará, Brasil",8209,150820,1508209,9,4,563,null,null,-0.855532574,-48.14149859,Para,Vigia,VIGIA,PARA,"VIGIA, PARA, BRASIL",15,PA
15,Pará,Nordeste Paraense,Guamá,Viseu,"Viseu, Pará, Brasil",8308,150830,1508308,13,4,565,null,null,-1.203278527,-46.13876522,Para,Viseu,VISEU,PARA,"VISEU, PARA, BRASIL",15,PA
15,Pará,Sudoeste Paraense,Altamira,Vitória do Xingu,"Vitória do Xingu, Pará, Brasil",8357,150835,1508357,15,5,641,null,null,-2.88376571,-52.01126035,Para,Vitoria do Xingu,VITORIA DO XINGU,PARA,"VITORIA DO XINGU, PARA, BRASIL",15,PA
15,Pará,Sudeste Paraense,Redenção,Xinguara,"Xinguara, Pará, Brasil",8407,150840,1508407,21,6,571,null,null,-7.101512827,-49.94270058,Para,Xinguara,XINGUARA,PARA,"XINGUARA, PARA, BRASIL",15,PA
16,Amapá,Norte do Amapá,Amapá,Amapá,"Amapá, Amapá, Brasil",105,160010,1600105,2,1,601,null,null,2.053921245,-50.79321447,Amapa,Amapa,AMAPA,AMAPA,"AMAPA, AMAPA, BRASIL",16,AP
16,Amapá,Norte do Amapá,Oiapoque,Calçoene,"Calçoene, Amapá, Brasil",204,160020,1600204,1,1,603,null,null,2.496559045,-50.94477273,Amapa,Calcoene,CALCOENE,AMAPA,"CALCOENE, AMAPA, BRASIL",16,AP
16,Amapá,Sul do Amapá,Macapá,Cutias,"Cutias, Amapá, Brasil",212,160021,1600212,3,2,667,null,null,0.971078055,-50.80162603,Amapa,Cutias,CUTIAS,AMAPA,"CUTIAS, AMAPA, BRASIL",16,AP
16,Amapá,Sul do Amapá,Macapá,Ferreira Gomes,"Ferreira Gomes, Amapá, Brasil",238,160023,1600238,3,2,611,null,null,0.853977393,-51.18742905,Amapa,Ferreira Gomes,FERREIRA GOMES,AMAPA,"FERREIRA GOMES, AMAPA, BRASIL",16,AP
16,Amapá,Sul do Amapá,Macapá,Itaubal,"Itaubal, Amapá, Brasil",253,160025,1600253,3,2,669,null,null,0.600653288,-50.70017944,Amapa,Itaubal,ITAUBAL,AMAPA,"ITAUBAL, AMAPA, BRASIL",16,AP
16,Amapá,Sul do Amapá,Mazagão,Laranjal do Jari,"Laranjal do Jari, Amapá, Brasil",279,160027,1600279,4,2,613,null,null,-0.8556645,-52.53902074,Amapa,Laranjal do Jari,LARANJAL DO JARI,AMAPA,"LARANJAL DO JARI, AMAPA, BRASIL",16,AP
16,Amapá,Sul do Amapá,Macapá,Macapá,"Macapá, Amapá, Brasil",303,160030,1600303,3,2,605,null,null,0.03895101,-51.05740546,Amapa,Macapa,MACAPA,AMAPA,"MACAPA, AMAPA, BRASIL",16,AP
16,Amapá,Sul do Amapá,Mazagão,Mazagão,"Mazagão, Amapá, Brasil",402,160040,1600402,4,2,607,null,null,-0.124396329,-51.28607686,Amapa,Mazagao,MAZAGAO,AMAPA,"MAZAGAO, AMAPA, BRASIL",16,AP
16,Amapá,Norte do Amapá,Oiapoque,Oiapoque,"Oiapoque, Amapá, Brasil",501,160050,1600501,1,1,609,null,null,3.851130733,-51.83055256,Amapa,Oiapoque,OIAPOQUE,AMAPA,"OIAPOQUE, AMAPA, BRASIL",16,AP
16,Amapá,Sul do Amapá,Macapá,Pedra Branca do Amapari,"Pedra Branca do Amapari, Amapá, Brasil",154,160015,1600154,3,2,663,null,null,0.776882861,-51.94659427,Amapa,Pedra Branca do Amapari,PEDRA BRANCA DO AMAPARI,AMAPA,"PEDRA BRANCA DO AMAPARI, AMAPA, BRASIL",16,AP
16,Amapá,Sul do Amapá,Macapá,Porto Grande,"Porto Grande, Amapá, Brasil",535,160053,1600535,3,2,671,null,null,0.712554702,-51.41444882,Amapa,Porto Grande,PORTO GRANDE,AMAPA,"PORTO GRANDE, AMAPA, BRASIL",16,AP
16,Amapá,Norte do Amapá,Amapá,Pracuúba,"Pracuúba, Amapá, Brasil",550,160055,1600550,2,1,673,null,null,1.742508487,-50.78425372,Amapa,Pracuuba,PRACUUBA,AMAPA,"PRACUUBA, AMAPA, BRASIL",16,AP
16,Amapá,Sul do Amapá,Macapá,Santana,"Santana, Amapá, Brasil",600,160060,1600600,3,2,615,null,null,-0.038373479,-51.17284647,Amapa,Santana,SANTANA,AMAPA,"SANTANA, AMAPA, BRASIL",16,AP
16,Amapá,Sul do Amapá,Macapá,Serra do Navio,"Serra do Navio, Amapá, Brasil",55,160005,1600055,3,2,665,null,null,0.897841041,-52.00353844,Amapa,Serra do Navio,SERRA DO NAVIO,AMAPA,"SERRA DO NAVIO, AMAPA, BRASIL",16,AP
16,Amapá,Norte do Amapá,Amapá,Tartarugalzinho,"Tartarugalzinho, Amapá, Brasil",709,160070,1600709,2,1,617,null,null,1.50984824,-50.91278615,Amapa,Tartarugalzinho,TARTARUGALZINHO,AMAPA,"TARTARUGALZINHO, AMAPA, BRASIL",16,AP
16,Amapá,Sul do Amapá,Mazagão,Vitória do Jari,"Vitória do Jari, Amapá, Brasil",808,160080,1600808,4,2,70,null,null,-0.918977089,-52.41961478,Amapa,Vitoria do Jari,VITORIA DO JARI,AMAPA,"VITORIA DO JARI, AMAPA, BRASIL",16,AP
17,Tocantins,Ocidental do Tocantins,Miracema do Tocantins,Abreulândia,"Abreulândia, Tocantins, Brasil",251,170025,1700251,3,1,337,null,null,-9.621790712,-49.16243756,Tocantins,Abreulandia,ABREULANDIA,TOCANTINS,"ABREULANDIA, TOCANTINS, BRASIL",17,TO
17,Tocantins,Ocidental do Tocantins,Bico do Papagaio,Aguiarnópolis,"Aguiarnópolis, Tocantins, Brasil",301,170030,1700301,1,1,72,null,null,-6.547170821,-47.47045659,Tocantins,Aguiarnopolis,AGUIARNOPOLIS,TOCANTINS,"AGUIARNOPOLIS, TOCANTINS, BRASIL",17,TO
17,Tocantins,Ocidental do Tocantins,Gurupi,Aliança do Tocantins,"Aliança do Tocantins, Tocantins, Brasil",350,170035,1700350,5,1,9441,null,null,-11.30374305,-48.94124002,Tocantins,Alianca do Tocantins,ALIANCA DO TOCANTINS,TOCANTINS,"ALIANCA DO TOCANTINS, TOCANTINS, BRASIL",17,TO
17,Tocantins,Oriental do Tocantins,Dianópolis,Almas,"Almas, Tocantins, Brasil",400,170040,1700400,8,2,9207,null,null,-11.57452347,-47.17417168,Tocantins,Almas,ALMAS,TOCANTINS,"ALMAS, TOCANTINS, BRASIL",17,TO
17,Tocantins,Ocidental do Tocantins,Gurupi,Alvorada,"Alvorada, Tocantins, Brasil",707,170070,1700707,5,1,9213,null,null,-12.47881532,-49.12681141,Tocantins,Alvorada,ALVORADA,TOCANTINS,"ALVORADA, TOCANTINS, BRASIL",17,TO
17,Tocantins,Ocidental do Tocantins,Bico do Papagaio,Ananás,"Ananás, Tocantins, Brasil",1002,170100,1701002,1,1,9219,null,null,-6.362818154,-48.07976461,Tocantins,Ananas,ANANAS,TOCANTINS,"ANANAS, TOCANTINS, BRASIL",17,TO
17,Tocantins,Ocidental do Tocantins,Bico do Papagaio,Angico,"Angico, Tocantins, Brasil",1051,170105,1701051,1,1,165,null,null,-6.38775275,-47.86207784,Tocantins,Angico,ANGICO,TOCANTINS,"ANGICO, TOCANTINS, BRASIL",17,TO
17,Tocantins,Oriental do Tocantins,Porto Nacional,Aparecida do Rio Negro,"Aparecida do Rio Negro, Tocantins, Brasil",1101,170110,1701101,6,2,9713,null,null,-9.955877715,-47.97667001,Tocantins,Aparecida do Rio Negro,APARECIDA DO RIO NEGRO,TOCANTINS,"APARECIDA DO RIO NEGRO, TOCANTINS, BRASIL",17,TO
17,Tocantins,Ocidental do Tocantins,Araguaína,Aragominas,"Aragominas, Tocantins, Brasil",1309,170130,1701309,2,1,167,null,null,-7.164349271,-48.52343019,Tocantins,Aragominas,ARAGOMINAS,TOCANTINS,"ARAGOMINAS, TOCANTINS, BRASIL",17,TO
17,Tocantins,Ocidental do Tocantins,Miracema do Tocantins,Araguacema,"Araguacema, Tocantins, Brasil",1903,170190,1701903,3,1,9237,null,null,-8.801802544,-49.56181264,Tocantins,Araguacema,ARAGUACEMA,TOCANTINS,"ARAGUACEMA, TOCANTINS, BRASIL",17,TO
17,Tocantins,Ocidental do Tocantins,Rio Formoso,Araguaçu,"Araguaçu, Tocantins, Brasil",2000,170200,1702000,4,1,9239,null,null,-12.92558371,-49.82861244,Tocantins,Araguacu,ARAGUACU,TOCANTINS,"ARAGUACU, TOCANTINS, BRASIL",17,TO
17,Tocantins,Ocidental do Tocantins,Araguaína,Araguaína,"Araguaína, Tocantins, Brasil",2109,170210,1702109,2,1,9241,null,null,-7.19132894,-48.20870525,Tocantins,Araguaina,ARAGUAINA,TOCANTINS,"ARAGUAINA, TOCANTINS, BRASIL",17,TO
17,Tocantins,Ocidental do Tocantins,Araguaína,Araguanã,"Araguanã, Tocantins, Brasil",2158,170215,1702158,2,1,169,null,null,-6.58224942,-48.64374955,Tocantins,Araguana,ARAGUANA,TOCANTINS,"ARAGUANA, TOCANTINS, BRASIL",17,TO
17,Tocantins,Ocidental do Tocantins,Bico do Papagaio,Araguatins,"Araguatins, Tocantins, Brasil",2208,170220,1702208,1,1,9243,null,null,-5.650586473,-48.12350734,Tocantins,Araguatins,ARAGUATINS,TOCANTINS,"ARAGUATINS, TOCANTINS, BRASIL",17,TO
17,Tocantins,Ocidental do Tocantins,Araguaína,Arapoema,"Arapoema, Tocantins, Brasil",2307,170230,1702307,2,1,9245,null,null,-7.652569735,-49.07563739,Tocantins,Arapoema,ARAPOEMA,TOCANTINS,"ARAPOEMA, TOCANTINS, BRASIL",17,TO
17,Tocantins,Oriental do Tocantins,Dianópolis,Arraias,"Arraias, Tocantins, Brasil",2406,170240,1702406,8,2,9247,null,null,-12.93441986,-46.94610706,Tocantins,Arraias,ARRAIAS,TOCANTINS,"ARRAIAS, TOCANTINS, BRASIL",17,TO
17,Tocantins,Ocidental do Tocantins,Bico do Papagaio,Augustinópolis,"Augustinópolis, Tocantins, Brasil",2554,170255,1702554,1,1,9685,null,null,-5.465414296,-47.88095679,Tocantins,Augustinopolis,AUGUSTINOPOLIS,TOCANTINS,"AUGUSTINOPOLIS, TOCANTINS, BRASIL",17,TO
17,Tocantins,Oriental do Tocantins,Dianópolis,Aurora do Tocantins,"Aurora do Tocantins, Tocantins, Brasil",2703,170270,1702703,8,2,9253,null,null,-12.70848986,-46.40708298,Tocantins,Aurora do Tocantins,AURORA DO TOCANTINS,TOCANTINS,"AURORA DO TOCANTINS, TOCANTINS, BRASIL",17,TO
17,Tocantins,Ocidental do Tocantins,Bico do Papagaio,Axixá do Tocantins,"Axixá do Tocantins, Tocantins, Brasil",2901,170290,1702901,1,1,9257,null,null,-5.624309066,-47.77415603,Tocantins,Axixa do Tocantins,AXIXA DO TOCANTINS,TOCANTINS,"AXIXA DO TOCANTINS, TOCANTINS, BRASIL",17,TO
17,Tocantins,Ocidental do Tocantins,Araguaína,Babaçulândia,"Babaçulândia, Tocantins, Brasil",3008,170300,1703008,2,1,9259,null,null,-7.201864532,-47.75881613,Tocantins,Babaculandia,BABACULANDIA,TOCANTINS,"BABACULANDIA, TOCANTINS, BRASIL",17,TO
17,Tocantins,Ocidental do Tocantins,Araguaína,Bandeirantes do Tocantins,"Bandeirantes do Tocantins, Tocantins, Brasil",3057,170305,1703057,2,1,74,null,null,-7.764859141,-48.5783806,Tocantins,Bandeirantes do Tocantins,BANDEIRANTES DO TOCANTINS,TOCANTINS,"BANDEIRANTES DO TOCANTINS, TOCANTINS, BRASIL",17,TO
17,Tocantins,Oriental do Tocantins,Jalapão,Barra do Ouro,"Barra do Ouro, Tocantins, Brasil",3073,170307,1703073,7,2,76,null,null,-7.691766599,-47.68713497,Tocantins,Barra do Ouro,BARRA DO OURO,TOCANTINS,"BARRA DO OURO, TOCANTINS, BRASIL",17,TO
17,Tocantins,Ocidental do Tocantins,Miracema do Tocantins,Barrolândia,"Barrolândia, Tocantins, Brasil",3107,170310,1703107,3,1,9693,null,null,-9.831653365,-48.73146059,Tocantins,Barrolandia,BARROLANDIA,TOCANTINS,"BARROLANDIA, TOCANTINS, BRASIL",17,TO
17,Tocantins,Ocidental do Tocantins,Miracema do Tocantins,Bernardo Sayão,"Bernardo Sayão, Tocantins, Brasil",3206,170320,1703206,3,1,9695,null,null,-7.868512483,-48.89905435,Tocantins,Bernardo Sayao,BERNARDO SAYAO,TOCANTINS,"BERNARDO SAYAO, TOCANTINS, BRASIL",17,TO
17,Tocantins,Oriental do Tocantins,Porto Nacional,Bom Jesus do Tocantins,"Bom Jesus do Tocantins, Tocantins, Brasil",3305,170330,1703305,6,2,341,null,null,-8.963348013,-48.16638049,Tocantins,Bom Jesus do Tocantins,BOM JESUS DO TOCANTINS,TOCANTINS,"BOM JESUS DO TOCANTINS, TOCANTINS, BRASIL",17,TO
17,Tocantins,Ocidental do Tocantins,Miracema do Tocantins,Brasilândia do Tocantins,"Brasilândia do Tocantins, Tocantins, Brasil",3602,170360,1703602,3,1,339,null,null,-8.384889351,-48.48537442,Tocantins,Brasilandia do Tocantins,BRASILANDIA DO TOCANTINS,TOCANTINS,"BRASILANDIA DO TOCANTINS, TOCANTINS, BRASIL",17,TO
17,Tocantins,Ocidental do Tocantins,Gurupi,Brejinho de Nazaré,"Brejinho de Nazaré, Tocantins, Brasil",3701,170370,1703701,5,1,9273,null,null,-11.01080506,-48.55866023,Tocantins,Brejinho de Nazare,BREJINHO DE NAZARE,TOCANTINS,"BREJINHO DE NAZARE, TOCANTINS, BRASIL",17,TO
17,Tocantins,Ocidental do Tocantins,Bico do Papagaio,Buriti do Tocantins,"Buriti do Tocantins, Tocantins, Brasil",3800,170380,1703800,1,1,9715,null,null,-5.313538856,-48.22325013,Tocantins,Buriti do Tocantins,BURITI DO TOCANTINS,TOCANTINS,"BURITI DO TOCANTINS, TOCANTINS, BRASIL",17,TO
17,Tocantins,Ocidental do Tocantins,Bico do Papagaio,Cachoeirinha,"Cachoeirinha, Tocantins, Brasil",3826,170382,1703826,1,1,171,null,null,-6.113241647,-47.91419778,Tocantins,Cachoeirinha,CACHOEIRINHA,TOCANTINS,"CACHOEIRINHA, TOCANTINS, BRASIL",17,TO
17,Tocantins,Oriental do Tocantins,Jalapão,Campos Lindos,"Campos Lindos, Tocantins, Brasil",3842,170384,1703842,7,2,173,null,null,-7.971681394,-46.80197435,Tocantins,Campos Lindos,CAMPOS LINDOS,TOCANTINS,"CAMPOS LINDOS, TOCANTINS, BRASIL",17,TO
17,Tocantins,Ocidental do Tocantins,Gurupi,Cariri do Tocantins,"Cariri do Tocantins, Tocantins, Brasil",3867,170386,1703867,5,1,327,null,null,-11.88899746,-49.17104073,Tocantins,Cariri do Tocantins,CARIRI DO TOCANTINS,TOCANTINS,"CARIRI DO TOCANTINS, TOCANTINS, BRASIL",17,TO
17,Tocantins,Ocidental do Tocantins,Araguaína,Carmolândia,"Carmolândia, Tocantins, Brasil",3883,170388,1703883,2,1,175,null,null,-7.031478778,-48.39595993,Tocantins,Carmolandia,CARMOLANDIA,TOCANTINS,"CARMOLANDIA, TOCANTINS, BRASIL",17,TO
17,Tocantins,Ocidental do Tocantins,Bico do Papagaio,Carrasco Bonito,"Carrasco Bonito, Tocantins, Brasil",3891,170389,1703891,1,1,177,null,null,-5.322661355,-48.03063343,Tocantins,Carrasco Bonito,CARRASCO BONITO,TOCANTINS,"CARRASCO BONITO, TOCANTINS, BRASIL",17,TO
17,Tocantins,Ocidental do Tocantins,Miracema do Tocantins,Caseara,"Caseara, Tocantins, Brasil",3909,170390,1703909,3,1,9717,null,null,-9.267406219,-49.94869227,Tocantins,Caseara,CASEARA,TOCANTINS,"CASEARA, TOCANTINS, BRASIL",17,TO
17,Tocantins,Oriental do Tocantins,Jalapão,Centenário,"Centenário, Tocantins, Brasil",4105,170410,1704105,7,2,343,null,null,-8.958463639,-47.33839851,Tocantins,Centenario,CENTENARIO,TOCANTINS,"CENTENARIO, TOCANTINS, BRASIL",17,TO
17,Tocantins,Oriental do Tocantins,Dianópolis,Chapada da Natividade,"Chapada da Natividade, Tocantins, Brasil",5102,170510,1705102,8,2,80,null,null,-11.62426783,-47.75390489,Tocantins,Chapada da Natividade,CHAPADA DA NATIVIDADE,TOCANTINS,"CHAPADA DA NATIVIDADE, TOCANTINS, BRASIL",17,TO
17,Tocantins,Ocidental do Tocantins,Rio Formoso,Chapada de Areia,"Chapada de Areia, Tocantins, Brasil",4600,170460,1704600,4,1,78,null,null,-10.14198858,-49.18310786,Tocantins,Chapada de Areia,CHAPADA DE AREIA,TOCANTINS,"CHAPADA DE AREIA, TOCANTINS, BRASIL",17,TO
17,Tocantins,Ocidental do Tocantins,Araguaína,Colinas do Tocantins,"Colinas do Tocantins, Tocantins, Brasil",5508,170550,1705508,2,1,9311,null,null,-8.054624675,-48.48159454,Tocantins,Colinas do Tocantins,COLINAS DO TOCANTINS,TOCANTINS,"COLINAS DO TOCANTINS, TOCANTINS, BRASIL",17,TO
17,Tocantins,Ocidental do Tocantins,Miracema do Tocantins,Colméia,"Colméia, Tocantins, Brasil",16703,171670,1716703,3,1,9529,null,null,-8.729371807,-48.75706659,Tocantins,Colmeia,COLMEIA,TOCANTINS,"COLMEIA, TOCANTINS, BRASIL",17,TO
17,Tocantins,Oriental do Tocantins,Dianópolis,Combinado,"Combinado, Tocantins, Brasil",5557,170555,1705557,8,2,9697,null,null,-12.81860767,-46.55207234,Tocantins,Combinado,COMBINADO,TOCANTINS,"COMBINADO, TOCANTINS, BRASIL",17,TO
17,Tocantins,Oriental do Tocantins,Dianópolis,Conceição do Tocantins,"Conceição do Tocantins, Tocantins, Brasil",5607,170560,1705607,8,2,9313,null,null,-12.21727777,-47.29286881,Tocantins,Conceicao do Tocantins,CONCEICAO DO TOCANTINS,TOCANTINS,"CONCEICAO DO TOCANTINS, TOCANTINS, BRASIL",17,TO
17,Tocantins,Ocidental do Tocantins,Miracema do Tocantins,Couto Magalhães,"Couto Magalhães, Tocantins, Brasil",6001,170600,1706001,3,1,9321,null,null,-8.35511837,-49.17657157,Tocantins,Couto Magalhaes,COUTO MAGALHAES,TOCANTINS,"COUTO MAGALHAES, TOCANTINS, BRASIL",17,TO
17,Tocantins,Ocidental do Tocantins,Rio Formoso,Cristalândia,"Cristalândia, Tocantins, Brasil",6100,170610,1706100,4,1,9323,null,null,-10.59072464,-49.18630029,Tocantins,Cristalandia,CRISTALANDIA,TOCANTINS,"CRISTALANDIA, TOCANTINS, BRASIL",17,TO
17,Tocantins,Ocidental do Tocantins,Gurupi,Crixás do Tocantins,"Crixás do Tocantins, Tocantins, Brasil",6258,170625,1706258,5,1,82,null,null,-11.10427429,-48.91551383,Tocantins,Crixas do Tocantins,CRIXAS DO TOCANTINS,TOCANTINS,"CRIXAS DO TOCANTINS, TOCANTINS, BRASIL",17,TO
17,Tocantins,Ocidental do Tocantins,Bico do Papagaio,Darcinópolis,"Darcinópolis, Tocantins, Brasil",6506,170650,1706506,1,1,179,null,null,-6.712351001,-47.75216111,Tocantins,Darcinopolis,DARCINOPOLIS,TOCANTINS,"DARCINOPOLIS, TOCANTINS, BRASIL",17,TO
17,Tocantins,Oriental do Tocantins,Dianópolis,Dianópolis,"Dianópolis, Tocantins, Brasil",7009,170700,1707009,8,2,9341,null,null,-11.62523188,-46.82040907,Tocantins,Dianopolis,DIANOPOLIS,TOCANTINS,"DIANOPOLIS, TOCANTINS, BRASIL",17,TO
17,Tocantins,Ocidental do Tocantins,Miracema do Tocantins,Divinópolis do Tocantins,"Divinópolis do Tocantins, Tocantins, Brasil",7108,170710,1707108,3,1,9719,null,null,-9.79530114,-49.20541319,Tocantins,Divinopolis do Tocantins,DIVINOPOLIS DO TOCANTINS,TOCANTINS,"DIVINOPOLIS DO TOCANTINS, TOCANTINS, BRASIL",17,TO
17,Tocantins,Ocidental do Tocantins,Miracema do Tocantins,Dois Irmãos do Tocantins,"Dois Irmãos do Tocantins, Tocantins, Brasil",7207,170720,1707207,3,1,9345,null,null,-9.26129671,-49.06733864,Tocantins,Dois Irmaos do Tocantins,DOIS IRMAOS DO TOCANTINS,TOCANTINS,"DOIS IRMAOS DO TOCANTINS, TOCANTINS, BRASIL",17,TO
17,Tocantins,Ocidental do Tocantins,Rio Formoso,Dueré,"Dueré, Tocantins, Brasil",7306,170730,1707306,4,1,9347,null,null,-11.34128542,-49.26587592,Tocantins,Duere,DUERE,TOCANTINS,"DUERE, TOCANTINS, BRASIL",17,TO
17,Tocantins,Ocidental do Tocantins,Bico do Papagaio,Esperantina,"Esperantina, Tocantins, Brasil",7405,170740,1707405,1,1,181,null,null,-5.366608059,-48.5441476,Tocantins,Esperantina,ESPERANTINA,TOCANTINS,"ESPERANTINA, TOCANTINS, BRASIL",17,TO
17,Tocantins,Ocidental do Tocantins,Rio Formoso,Fátima,"Fátima, Tocantins, Brasil",7553,170755,1707553,4,1,9683,null,null,-10.75250873,-48.89898266,Tocantins,Fatima,FATIMA,TOCANTINS,"FATIMA, TOCANTINS, BRASIL",17,TO
17,Tocantins,Ocidental do Tocantins,Gurupi,Figueirópolis,"Figueirópolis, Tocantins, Brasil",7652,170765,1707652,5,1,9667,null,null,-12.13677998,-49.17384673,Tocantins,Figueiropolis,FIGUEIROPOLIS,TOCANTINS,"FIGUEIROPOLIS, TOCANTINS, BRASIL",17,TO
17,Tocantins,Ocidental do Tocantins,Araguaína,Filadélfia,"Filadélfia, Tocantins, Brasil",7702,170770,1707702,2,1,9355,null,null,-7.337611906,-47.48496414,Tocantins,Filadelfia,FILADELFIA,TOCANTINS,"FILADELFIA, TOCANTINS, BRASIL",17,TO
17,Tocantins,Ocidental do Tocantins,Rio Formoso,Formoso do Araguaia,"Formoso do Araguaia, Tocantins, Brasil",8205,170820,1708205,4,1,9365,null,null,-11.80514197,-49.52686036,Tocantins,Formoso do Araguaia,FORMOSO DO ARAGUAIA,TOCANTINS,"FORMOSO DO ARAGUAIA, TOCANTINS, BRASIL",17,TO
17,Tocantins,Ocidental do Tocantins,Miracema do Tocantins,Goianorte,"Goianorte, Tocantins, Brasil",8304,170830,1708304,3,1,9699,null,null,-8.770520805,-48.93689019,Tocantins,Goianorte,GOIANORTE,TOCANTINS,"GOIANORTE, TOCANTINS, BRASIL",17,TO
17,Tocantins,Oriental do Tocantins,Jalapão,Goiatins,"Goiatins, Tocantins, Brasil",9005,170900,1709005,7,2,9533,null,null,-7.70917239,-47.31543549,Tocantins,Goiatins,GOIATINS,TOCANTINS,"GOIATINS, TOCANTINS, BRASIL",17,TO
17,Tocantins,Ocidental do Tocantins,Miracema do Tocantins,Guaraí,"Guaraí, Tocantins, Brasil",9302,170930,1709302,3,1,9627,null,null,-8.836165658,-48.50864061,Tocantins,Guarai,GUARAI,TOCANTINS,"GUARAI, TOCANTINS, BRASIL",17,TO
17,Tocantins,Ocidental do Tocantins,Gurupi,Gurupi,"Gurupi, Tocantins, Brasil",9500,170950,1709500,5,1,9385,null,null,-11.72977232,-49.07147747,Tocantins,Gurupi,GURUPI,TOCANTINS,"GURUPI, TOCANTINS, BRASIL",17,TO
17,Tocantins,Oriental do Tocantins,Porto Nacional,Ipueiras,"Ipueiras, Tocantins, Brasil",9807,170980,1709807,6,2,84,null,null,-11.24628862,-48.45192623,Tocantins,Ipueiras,IPUEIRAS,TOCANTINS,"IPUEIRAS, TOCANTINS, BRASIL",17,TO
17,Tocantins,Oriental do Tocantins,Jalapão,Itacajá,"Itacajá, Tocantins, Brasil",10508,171050,1710508,7,2,9405,null,null,-8.390980552,-47.7681124,Tocantins,Itacaja,ITACAJA,TOCANTINS,"ITACAJA, TOCANTINS, BRASIL",17,TO
17,Tocantins,Ocidental do Tocantins,Bico do Papagaio,Itaguatins,"Itaguatins, Tocantins, Brasil",10706,171070,1710706,1,1,9409,null,null,-5.775385088,-47.47993595,Tocantins,Itaguatins,ITAGUATINS,TOCANTINS,"ITAGUATINS, TOCANTINS, BRASIL",17,TO
17,Tocantins,Oriental do Tocantins,Jalapão,Itapiratins,"Itapiratins, Tocantins, Brasil",10904,171090,1710904,7,2,347,null,null,-8.384329593,-48.11119961,Tocantins,Itapiratins,ITAPIRATINS,TOCANTINS,"ITAPIRATINS, TOCANTINS, BRASIL",17,TO
17,Tocantins,Ocidental do Tocantins,Miracema do Tocantins,Itaporã do Tocantins,"Itaporã do Tocantins, Tocantins, Brasil",11100,171110,1711100,3,1,9417,null,null,-8.568828612,-48.6932637,Tocantins,Itapora do Tocantins,ITAPORA DO TOCANTINS,TOCANTINS,"ITAPORA DO TOCANTINS, TOCANTINS, BRASIL",17,TO
17,Tocantins,Ocidental do Tocantins,Gurupi,Jaú do Tocantins,"Jaú do Tocantins, Tocantins, Brasil",11506,171150,1711506,5,1,329,null,null,-12.65292637,-48.59460829,Tocantins,Jau do Tocantins,JAU DO TOCANTINS,TOCANTINS,"JAU DO TOCANTINS, TOCANTINS, BRASIL",17,TO
17,Tocantins,Ocidental do Tocantins,Miracema do Tocantins,Juarina,"Juarina, Tocantins, Brasil",11803,171180,1711803,3,1,349,null,null,-8.117423968,-49.09864319,Tocantins,Juarina,JUARINA,TOCANTINS,"JUARINA, TOCANTINS, BRASIL",17,TO
17,Tocantins,Ocidental do Tocantins,Rio Formoso,Lagoa da Confusão,"Lagoa da Confusão, Tocantins, Brasil",11902,171190,1711902,4,1,367,null,null,-10.78869556,-49.62008534,Tocantins,Lagoa da Confusao,LAGOA DA CONFUSAO,TOCANTINS,"LAGOA DA CONFUSAO, TOCANTINS, BRASIL",17,TO
17,Tocantins,Oriental do Tocantins,Jalapão,Lagoa do Tocantins,"Lagoa do Tocantins, Tocantins, Brasil",11951,171195,1711951,7,2,353,null,null,-10.2968867,-47.56144663,Tocantins,Lagoa do Tocantins,LAGOA DO TOCANTINS,TOCANTINS,"LAGOA DO TOCANTINS, TOCANTINS, BRASIL",17,TO
17,Tocantins,Oriental do Tocantins,Porto Nacional,Lajeado,"Lajeado, Tocantins, Brasil",12009,171200,1712009,6,2,351,null,null,-9.744682436,-48.35850395,Tocantins,Lajeado,LAJEADO,TOCANTINS,"LAJEADO, TOCANTINS, BRASIL",17,TO
17,Tocantins,Oriental do Tocantins,Dianópolis,Lavandeira,"Lavandeira, Tocantins, Brasil",12157,171215,1712157,8,2,86,null,null,-12.79165879,-46.50667572,Tocantins,Lavandeira,LAVANDEIRA,TOCANTINS,"LAVANDEIRA, TOCANTINS, BRASIL",17,TO
17,Tocantins,Oriental do Tocantins,Jalapão,Lizarda,"Lizarda, Tocantins, Brasil",12405,171240,1712405,7,2,9569,null,null,-9.594570288,-46.67516546,Tocantins,Lizarda,LIZARDA,TOCANTINS,"LIZARDA, TOCANTINS, BRASIL",17,TO
17,Tocantins,Ocidental do Tocantins,Bico do Papagaio,Luzinópolis,"Luzinópolis, Tocantins, Brasil",12454,171245,1712454,1,1,88,null,null,-6.19398966,-47.85682804,Tocantins,Luzinopolis,LUZINOPOLIS,TOCANTINS,"LUZINOPOLIS, TOCANTINS, BRASIL",17,TO
17,Tocantins,Ocidental do Tocantins,Miracema do Tocantins,Marianópolis do Tocantins,"Marianópolis do Tocantins, Tocantins, Brasil",12504,171250,1712504,3,1,9711,null,null,-9.798880359,-49.65103399,Tocantins,Marianopolis do Tocantins,MARIANOPOLIS DO TOCANTINS,TOCANTINS,"MARIANOPOLIS DO TOCANTINS, TOCANTINS, BRASIL",17,TO
17,Tocantins,Oriental do Tocantins,Jalapão,Mateiros,"Mateiros, Tocantins, Brasil",12702,171270,1712702,7,2,317,null,null,-10.54442885,-46.41246574,Tocantins,Mateiros,MATEIROS,TOCANTINS,"MATEIROS, TOCANTINS, BRASIL",17,TO
17,Tocantins,Ocidental do Tocantins,Bico do Papagaio,Maurilândia do Tocantins,"Maurilândia do Tocantins, Tocantins, Brasil",12801,171280,1712801,1,1,183,null,null,-5.952566421,-47.50487996,Tocantins,Maurilandia do Tocantins,MAURILANDIA DO TOCANTINS,TOCANTINS,"MAURILANDIA DO TOCANTINS, TOCANTINS, BRASIL",17,TO
17,Tocantins,Ocidental do Tocantins,Miracema do Tocantins,Miracema do Tocantins,"Miracema do Tocantins, Tocantins, Brasil",13205,171320,1713205,3,1,9461,null,null,-9.568346078,-48.38799131,Tocantins,Miracema do Tocantins,MIRACEMA DO TOCANTINS,TOCANTINS,"MIRACEMA DO TOCANTINS, TOCANTINS, BRASIL",17,TO
17,Tocantins,Ocidental do Tocantins,Miracema do Tocantins,Miranorte,"Miranorte, Tocantins, Brasil",13304,171330,1713304,3,1,9463,null,null,-9.517404731,-48.59263194,Tocantins,Miranorte,MIRANORTE,TOCANTINS,"MIRANORTE, TOCANTINS, BRASIL",17,TO
17,Tocantins,Oriental do Tocantins,Porto Nacional,Monte do Carmo,"Monte do Carmo, Tocantins, Brasil",13601,171360,1713601,6,2,9469,null,null,-10.76354219,-48.11042003,Tocantins,Monte do Carmo,MONTE DO CARMO,TOCANTINS,"MONTE DO CARMO, TOCANTINS, BRASIL",17,TO
17,Tocantins,Ocidental do Tocantins,Miracema do Tocantins,Monte Santo do Tocantins,"Monte Santo do Tocantins, Tocantins, Brasil",13700,171370,1713700,3,1,90,null,null,-10.00559143,-48.9908906,Tocantins,Monte Santo do Tocantins,MONTE SANTO DO TOCANTINS,TOCANTINS,"MONTE SANTO DO TOCANTINS, TOCANTINS, BRASIL",17,TO
17,Tocantins,Ocidental do Tocantins,Araguaína,Muricilândia,"Muricilândia, Tocantins, Brasil",13957,171395,1713957,2,1,187,null,null,-7.138519285,-48.60674528,Tocantins,Muricilandia,MURICILANDIA,TOCANTINS,"MURICILANDIA, TOCANTINS, BRASIL",17,TO
17,Tocantins,Oriental do Tocantins,Dianópolis,Natividade,"Natividade, Tocantins, Brasil",14203,171420,1714203,8,2,9481,null,null,-11.70535738,-47.72725753,Tocantins,Natividade,NATIVIDADE,TOCANTINS,"NATIVIDADE, TOCANTINS, BRASIL",17,TO
17,Tocantins,Ocidental do Tocantins,Bico do Papagaio,Nazaré,"Nazaré, Tocantins, Brasil",14302,171430,1714302,1,1,9483,null,null,-6.372557969,-47.66697718,Tocantins,Nazare,NAZARE,TOCANTINS,"NAZARE, TOCANTINS, BRASIL",17,TO
17,Tocantins,Ocidental do Tocantins,Araguaína,Nova Olinda,"Nova Olinda, Tocantins, Brasil",14880,171488,1714880,2,1,9663,null,null,-7.633314911,-48.42480679,Tocantins,Nova Olinda,NOVA OLINDA,TOCANTINS,"NOVA OLINDA, TOCANTINS, BRASIL",17,TO
17,Tocantins,Ocidental do Tocantins,Rio Formoso,Nova Rosalândia,"Nova Rosalândia, Tocantins, Brasil",15002,171500,1715002,4,1,9721,null,null,-10.56687114,-48.90618072,Tocantins,Nova Rosalandia,NOVA ROSALANDIA,TOCANTINS,"NOVA ROSALANDIA, TOCANTINS, BRASIL",17,TO
17,Tocantins,Oriental do Tocantins,Jalapão,Novo Acordo,"Novo Acordo, Tocantins, Brasil",15101,171510,1715101,7,2,9499,null,null,-9.968486466,-47.66814839,Tocantins,Novo Acordo,NOVO ACORDO,TOCANTINS,"NOVO ACORDO, TOCANTINS, BRASIL",17,TO
17,Tocantins,Oriental do Tocantins,Dianópolis,Novo Alegre,"Novo Alegre, Tocantins, Brasil",15150,171515,1715150,8,2,9703,null,null,-12.90993867,-46.57729735,Tocantins,Novo Alegre,NOVO ALEGRE,TOCANTINS,"NOVO ALEGRE, TOCANTINS, BRASIL",17,TO
17,Tocantins,Oriental do Tocantins,Dianópolis,Novo Jardim,"Novo Jardim, Tocantins, Brasil",15259,171525,1715259,8,2,321,null,null,-11.81587505,-46.6307873,Tocantins,Novo Jardim,NOVO JARDIM,TOCANTINS,"NOVO JARDIM, TOCANTINS, BRASIL",17,TO
17,Tocantins,Ocidental do Tocantins,Rio Formoso,Oliveira de Fátima,"Oliveira de Fátima, Tocantins, Brasil",15507,171550,1715507,4,1,92,null,null,-10.70836271,-48.90740157,Tocantins,Oliveira de Fatima,OLIVEIRA DE FATIMA,TOCANTINS,"OLIVEIRA DE FATIMA, TOCANTINS, BRASIL",17,TO
17,Tocantins,Oriental do Tocantins,Porto Nacional,Palmas,"Palmas, Tocantins, Brasil",21000,172100,1721000,6,2,9733,null,null,-10.16325333,-48.35104371,Tocantins,Palmas,PALMAS,TOCANTINS,"PALMAS, TOCANTINS, BRASIL",17,TO
17,Tocantins,Ocidental do Tocantins,Araguaína,Palmeirante,"Palmeirante, Tocantins, Brasil",15705,171570,1715705,2,1,189,null,null,-7.857561376,-47.93424971,Tocantins,Palmeirante,PALMEIRANTE,TOCANTINS,"PALMEIRANTE, TOCANTINS, BRASIL",17,TO
17,Tocantins,Ocidental do Tocantins,Bico do Papagaio,Palmeiras do Tocantins,"Palmeiras do Tocantins, Tocantins, Brasil",13809,171380,1713809,1,1,185,null,null,-6.611862335,-47.55868353,Tocantins,Palmeiras do Tocantins,PALMEIRAS DO TOCANTINS,TOCANTINS,"PALMEIRAS DO TOCANTINS, TOCANTINS, BRASIL",17,TO
17,Tocantins,Ocidental do Tocantins,Gurupi,Palmeirópolis,"Palmeirópolis, Tocantins, Brasil",15754,171575,1715754,5,1,9649,null,null,-13.03988843,-48.41341396,Tocantins,Palmeiropolis,PALMEIROPOLIS,TOCANTINS,"PALMEIROPOLIS, TOCANTINS, BRASIL",17,TO
17,Tocantins,Ocidental do Tocantins,Rio Formoso,Paraíso do Tocantins,"Paraíso do Tocantins, Tocantins, Brasil",16109,171610,1716109,4,1,9519,null,null,-10.17122075,-48.88663008,Tocantins,Paraiso do Tocantins,PARAISO DO TOCANTINS,TOCANTINS,"PARAISO DO TOCANTINS, TOCANTINS, BRASIL",17,TO
17,Tocantins,Oriental do Tocantins,Dianópolis,Paranã,"Paranã, Tocantins, Brasil",16208,171620,1716208,8,2,9521,null,null,-12.62048149,-47.88408373,Tocantins,Parana,PARANA,TOCANTINS,"PARANA, TOCANTINS, BRASIL",17,TO
17,Tocantins,Ocidental do Tocantins,Araguaína,Pau D'Arco,"Pau D'Arco, Tocantins, Brasil",16307,171630,1716307,2,1,191,null,null,-7.539998356,-49.36330648,Tocantins,Pau D'Arco,PAU D'ARCO,TOCANTINS,"PAU D'ARCO, TOCANTINS, BRASIL",17,TO
17,Tocantins,Oriental do Tocantins,Porto Nacional,Pedro Afonso,"Pedro Afonso, Tocantins, Brasil",16505,171650,1716505,6,2,9525,null,null,-8.964449592,-48.17755611,Tocantins,Pedro Afonso,PEDRO AFONSO,TOCANTINS,"PEDRO AFONSO, TOCANTINS, BRASIL",17,TO
17,Tocantins,Ocidental do Tocantins,Gurupi,Peixe,"Peixe, Tocantins, Brasil",16604,171660,1716604,5,1,9527,null,null,-12.02977383,-48.53781063,Tocantins,Peixe,PEIXE,TOCANTINS,"PEIXE, TOCANTINS, BRASIL",17,TO
17,Tocantins,Ocidental do Tocantins,Miracema do Tocantins,Pequizeiro,"Pequizeiro, Tocantins, Brasil",16653,171665,1716653,3,1,9705,null,null,-8.593340654,-48.93517987,Tocantins,Pequizeiro,PEQUIZEIRO,TOCANTINS,"PEQUIZEIRO, TOCANTINS, BRASIL",17,TO
17,Tocantins,Oriental do Tocantins,Dianópolis,Pindorama do Tocantins,"Pindorama do Tocantins, Tocantins, Brasil",17008,171700,1717008,8,2,9537,null,null,-11.13820258,-47.57568772,Tocantins,Pindorama do Tocantins,PINDORAMA DO TOCANTINS,TOCANTINS,"PINDORAMA DO TOCANTINS, TOCANTINS, BRASIL",17,TO
17,Tocantins,Ocidental do Tocantins,Araguaína,Piraquê,"Piraquê, Tocantins, Brasil",17206,171720,1717206,2,1,355,null,null,-6.769777033,-48.29370739,Tocantins,Piraque,PIRAQUE,TOCANTINS,"PIRAQUE, TOCANTINS, BRASIL",17,TO
17,Tocantins,Ocidental do Tocantins,Rio Formoso,Pium,"Pium, Tocantins, Brasil",17503,171750,1717503,4,1,9547,null,null,-10.44093112,-49.16665801,Tocantins,Pium,PIUM,TOCANTINS,"PIUM, TOCANTINS, BRASIL",17,TO
17,Tocantins,Oriental do Tocantins,Dianópolis,Ponte Alta do Bom Jesus,"Ponte Alta do Bom Jesus, Tocantins, Brasil",17800,171780,1717800,8,2,9551,null,null,-12.08781291,-46.46958679,Tocantins,Ponte Alta do Bom Jesus,PONTE ALTA DO BOM JESUS,TOCANTINS,"PONTE ALTA DO BOM JESUS, TOCANTINS, BRASIL",17,TO
17,Tocantins,Oriental do Tocantins,Jalapão,Ponte Alta do Tocantins,"Ponte Alta do Tocantins, Tocantins, Brasil",17909,171790,1717909,7,2,9553,null,null,-10.74067285,-47.54118036,Tocantins,Ponte Alta do Tocantins,PONTE ALTA DO TOCANTINS,TOCANTINS,"PONTE ALTA DO TOCANTINS, TOCANTINS, BRASIL",17,TO
17,Tocantins,Oriental do Tocantins,Dianópolis,Porto Alegre do Tocantins,"Porto Alegre do Tocantins, Tocantins, Brasil",18006,171800,1718006,8,2,9723,null,null,-11.6072591,-47.0474256,Tocantins,Porto Alegre do Tocantins,PORTO ALEGRE DO TOCANTINS,TOCANTINS,"PORTO ALEGRE DO TOCANTINS, TOCANTINS, BRASIL",17,TO
17,Tocantins,Oriental do Tocantins,Porto Nacional,Porto Nacional,"Porto Nacional, Tocantins, Brasil",18204,171820,1718204,6,2,9559,null,null,-10.70856992,-48.41215346,Tocantins,Porto Nacional,PORTO NACIONAL,TOCANTINS,"PORTO NACIONAL, TOCANTINS, BRASIL",17,TO
17,Tocantins,Ocidental do Tocantins,Bico do Papagaio,Praia Norte,"Praia Norte, Tocantins, Brasil",18303,171830,1718303,1,1,9725,null,null,-5.396712877,-47.81473173,Tocantins,Praia Norte,PRAIA NORTE,TOCANTINS,"PRAIA NORTE, TOCANTINS, BRASIL",17,TO
17,Tocantins,Ocidental do Tocantins,Miracema do Tocantins,Presidente Kennedy,"Presidente Kennedy, Tocantins, Brasil",18402,171840,1718402,3,1,9629,null,null,-8.529960828,-48.50433067,Tocantins,Presidente Kennedy,PRESIDENTE KENNEDY,TOCANTINS,"PRESIDENTE KENNEDY, TOCANTINS, BRASIL",17,TO
17,Tocantins,Ocidental do Tocantins,Rio Formoso,Pugmil,"Pugmil, Tocantins, Brasil",18451,171845,1718451,4,1,94,null,null,-10.42430716,-48.89422045,Tocantins,Pugmil,PUGMIL,TOCANTINS,"PUGMIL, TOCANTINS, BRASIL",17,TO
17,Tocantins,Oriental do Tocantins,Jalapão,Recursolândia,"Recursolândia, Tocantins, Brasil",18501,171850,1718501,7,2,357,null,null,-8.735360454,-47.2380412,Tocantins,Recursolandia,RECURSOLANDIA,TOCANTINS,"RECURSOLANDIA, TOCANTINS, BRASIL",17,TO
17,Tocantins,Ocidental do Tocantins,Bico do Papagaio,Riachinho,"Riachinho, Tocantins, Brasil",18550,171855,1718550,1,1,193,null,null,-6.442211388,-48.1410455,Tocantins,Riachinho,RIACHINHO,TOCANTINS,"RIACHINHO, TOCANTINS, BRASIL",17,TO
17,Tocantins,Oriental do Tocantins,Dianópolis,Rio da Conceição,"Rio da Conceição, Tocantins, Brasil",18659,171865,1718659,8,2,323,null,null,-11.40494002,-46.8803997,Tocantins,Rio da Conceicao,RIO DA CONCEICAO,TOCANTINS,"RIO DA CONCEICAO, TOCANTINS, BRASIL",17,TO
17,Tocantins,Ocidental do Tocantins,Miracema do Tocantins,Rio dos Bois,"Rio dos Bois, Tocantins, Brasil",18709,171870,1718709,3,1,359,null,null,-9.343742239,-48.53304797,Tocantins,Rio dos Bois,RIO DOS BOIS,TOCANTINS,"RIO DOS BOIS, TOCANTINS, BRASIL",17,TO
17,Tocantins,Oriental do Tocantins,Jalapão,Rio Sono,"Rio Sono, Tocantins, Brasil",18758,171875,1718758,7,2,9679,null,null,-9.347789334,-47.89994164,Tocantins,Rio Sono,RIO SONO,TOCANTINS,"RIO SONO, TOCANTINS, BRASIL",17,TO
17,Tocantins,Ocidental do Tocantins,Bico do Papagaio,Sampaio,"Sampaio, Tocantins, Brasil",18808,171880,1718808,1,1,9727,null,null,-5.349295616,-47.87579246,Tocantins,Sampaio,SAMPAIO,TOCANTINS,"SAMPAIO, TOCANTINS, BRASIL",17,TO
17,Tocantins,Ocidental do Tocantins,Rio Formoso,Sandolândia,"Sandolândia, Tocantins, Brasil",18840,171884,1718840,4,1,331,null,null,-12.54160017,-49.93338815,Tocantins,Sandolandia,SANDOLANDIA,TOCANTINS,"SANDOLANDIA, TOCANTINS, BRASIL",17,TO
17,Tocantins,Ocidental do Tocantins,Araguaína,Santa Fé do Araguaia,"Santa Fé do Araguaia, Tocantins, Brasil",18865,171886,1718865,2,1,195,null,null,-7.149936385,-48.6939418,Tocantins,Santa Fe do Araguaia,SANTA FE DO ARAGUAIA,TOCANTINS,"SANTA FE DO ARAGUAIA, TOCANTINS, BRASIL",17,TO
17,Tocantins,Oriental do Tocantins,Porto Nacional,Santa Maria do Tocantins,"Santa Maria do Tocantins, Tocantins, Brasil",18881,171888,1718881,6,2,361,null,null,-8.774976449,-47.74527042,Tocantins,Santa Maria do Tocantins,SANTA MARIA DO TOCANTINS,TOCANTINS,"SANTA MARIA DO TOCANTINS, TOCANTINS, BRASIL",17,TO
17,Tocantins,Ocidental do Tocantins,Gurupi,Santa Rita do Tocantins,"Santa Rita do Tocantins, Tocantins, Brasil",18899,171889,1718899,5,1,96,null,null,-10.86645537,-48.90929401,Tocantins,Santa Rita do Tocantins,SANTA RITA DO TOCANTINS,TOCANTINS,"SANTA RITA DO TOCANTINS, TOCANTINS, BRASIL",17,TO
17,Tocantins,Oriental do Tocantins,Dianópolis,Santa Rosa do Tocantins,"Santa Rosa do Tocantins, Tocantins, Brasil",18907,171890,1718907,8,2,9729,null,null,-11.451404,-48.11995422,Tocantins,Santa Rosa do Tocantins,SANTA ROSA DO TOCANTINS,TOCANTINS,"SANTA ROSA DO TOCANTINS, TOCANTINS, BRASIL",17,TO
17,Tocantins,Oriental do Tocantins,Jalapão,Santa Tereza do Tocantins,"Santa Tereza do Tocantins, Tocantins, Brasil",19004,171900,1719004,7,2,9731,null,null,-10.28236153,-47.80628832,Tocantins,Santa Tereza do Tocantins,SANTA TEREZA DO TOCANTINS,TOCANTINS,"SANTA TEREZA DO TOCANTINS, TOCANTINS, BRASIL",17,TO
17,Tocantins,Ocidental do Tocantins,Bico do Papagaio,Santa Terezinha do Tocantins,"Santa Terezinha do Tocantins, Tocantins, Brasil",20002,172000,1720002,1,1,98,null,null,-6.436997618,-47.68428536,Tocantins,Santa Terezinha do Tocantins,SANTA TEREZINHA DO TOCANTINS,TOCANTINS,"SANTA TEREZINHA DO TOCANTINS, TOCANTINS, BRASIL",17,TO
17,Tocantins,Ocidental do Tocantins,Bico do Papagaio,São Bento do Tocantins,"São Bento do Tocantins, Tocantins, Brasil",20101,172010,1720101,1,1,197,null,null,-6.044999257,-47.91939229,Tocantins,Sao Bento do Tocantins,SAO BENTO DO TOCANTINS,TOCANTINS,"SAO BENTO DO TOCANTINS, TOCANTINS, BRASIL",17,TO
17,Tocantins,Oriental do Tocantins,Jalapão,São Félix do Tocantins,"São Félix do Tocantins, Tocantins, Brasil",20150,172015,1720150,7,2,363,null,null,-10.17328585,-46.65498083,Tocantins,Sao Felix do Tocantins,SAO FELIX DO TOCANTINS,TOCANTINS,"SAO FELIX DO TOCANTINS, TOCANTINS, BRASIL",17,TO
17,Tocantins,Ocidental do Tocantins,Bico do Papagaio,São Miguel do Tocantins,"São Miguel do Tocantins, Tocantins, Brasil",20200,172020,1720200,1,1,199,null,null,-5.553819529,-47.57300234,Tocantins,Sao Miguel do Tocantins,SAO MIGUEL DO TOCANTINS,TOCANTINS,"SAO MIGUEL DO TOCANTINS, TOCANTINS, BRASIL",17,TO
17,Tocantins,Ocidental do Tocantins,Gurupi,São Salvador do Tocantins,"São Salvador do Tocantins, Tocantins, Brasil",20259,172025,1720259,5,1,333,null,null,-12.74743341,-48.23208499,Tocantins,Sao Salvador do Tocantins,SAO SALVADOR DO TOCANTINS,TOCANTINS,"SAO SALVADOR DO TOCANTINS, TOCANTINS, BRASIL",17,TO
17,Tocantins,Ocidental do Tocantins,Bico do Papagaio,São Sebastião do Tocantins,"São Sebastião do Tocantins, Tocantins, Brasil",20309,172030,1720309,1,1,9603,null,null,-5.258961454,-48.20383415,Tocantins,Sao Sebastiao do Tocantins,SAO SEBASTIAO DO TOCANTINS,TOCANTINS,"SAO SEBASTIAO DO TOCANTINS, TOCANTINS, BRASIL",17,TO
